SALE TYPE,SOLD DATE,PROPERTY TYPE,ADDRESS,CITY,STATE OR PROVINCE,ZIP OR POSTAL CODE,PRICE,BEDS,BATHS,LOCATION,SQUARE FEET,LOT SIZE,YEAR BUILT,DAYS ON MARKET,$/SQUARE FEET,HOA/MONTH,STATUS,NEXT OPEN HOUSE START TIME,NEXT OPEN HOUSE END TIME,URL (SEE https://www.redfin.com/buy-a-home/comparative-market-analysis FOR INFO ON PRICING),SOURCE,MLS#,FAVORITE,INTERESTED,LATITUDE,LONGITUDE
"In accordance with local MLS rules, some MLS listings are not included in the download"
MLS Listing,,Condo/Co-op,1212 Alabama St,San Francisco,CA,94110,898000,3,1.5,SAN FRANCISCO,1700,,1955,11,528,200,Active,August-3-2025 01:00 PM,August-3-2025 04:00 PM,https://www.redfin.com/CA/San-Francisco/1212-Alabama-St-94110/home/114067389,MLSListings,ML82015322,N,Y,37.7522852,-122.4111671
MLS Listing,,Condo/Co-op,1650 N Jackson St #806,San Francisco,CA,94109,898000,1,1.0,SF District 8,875,14631,1991,13,1026,1360,Active,August-2-2025 02:00 PM,August-2-2025 04:30 PM,https://www.redfin.com/CA/San-Francisco/1650-Jackson-St-94109/unit-806/home/1304984,San Francisco MLS,425055641,N,Y,37.7941949,-122.4222425
MLS Listing,,Single Family Residential,419 Garfield St,San Francisco,CA,94132,998000,4,2.0,SF District 3,1700,2200,1947,14,587,,Active,,,https://www.redfin.com/CA/San-Francisco/419-Garfield-St-94132/home/1027567,San Francisco MLS,425044512,N,Y,37.7195345,-122.4666862
MLS Listing,,Condo/Co-op,1 S Park St #203,San Francisco,CA,94107,798000,1,1.0,SAN FRANCISCO,731,,2007,61,1092,832,Active,,,https://www.redfin.com/CA/San-Francisco/1-S-Park-St-94107/unit-203/home/12329813,MLSListings,ML82009201,N,Y,37.7821639,-122.3930695
MLS Listing,,Condo/Co-op,901 Tennessee St #404,San Francisco,CA,94107,539000,0,1.0,SAN FRANCISCO,397,,2019,84,1358,634,Active,,,https://www.redfin.com/CA/San-Francisco/901-Tennessee-St-94107/unit-404/home/173337256,MLSListings,ML82006031,N,Y,37.760305,-122.3892009
MLS Listing,,Condo/Co-op,241 10th St #302,San Francisco,CA,94103,820000,2,2.0,SF District 9,972,8923,2017,111,844,875,Active,,,https://www.redfin.com/CA/San-Francisco/241-10th-St-94103/unit-302/home/167288663,San Francisco MLS,425029380,N,Y,37.7736928,-122.4134317
MLS Listing,,Single Family Residential,1530 Jones St #4,San Francisco,CA,94109,799000,1,1.0,SF District 8,804,3863,1910,154,994,550,Active,,,https://www.redfin.com/CA/San-Francisco/1530-Jones-St-94133/unit-4/home/11893274,San Francisco MLS,425014048,N,Y,37.7954512,-122.4147162
MLS Listing,,Condo/Co-op,1325 Indiana St #204,San Francisco,CA,94107,749000,1,2.0,SAN FRANCISCO,797,,2002,161,940,657,Active,,,https://www.redfin.com/CA/San-Francisco/1325-Indiana-St-94107/unit-204/home/1400445,MLSListings,ML81994819,N,Y,37.753702,-122.3903556
MLS Listing,,Condo/Co-op,767 Bryant St #203,San Francisco,CA,94107,1798998,2,3.0,SAN FRANCISCO,3496,,2002,462,515,1408,Active,,,https://www.redfin.com/CA/San-Francisco/767-Bryant-St-94107/unit-203/home/2006816,MLSListings,ML81963018,N,Y,37.7763746,-122.4016047
MLS Listing,,Single Family Residential,1800 Lawton St,San Francisco,CA,94122,995000,3,2.0,SF District 2,1660,2374,1939,1,599,,Active,August-3-2025 12:00 PM,August-3-2025 02:00 PM,https://www.redfin.com/CA/San-Francisco/1800-Lawton-St-94122/home/2031136,San Francisco MLS,425061985,N,Y,37.75787,-122.4823918
MLS Listing,,Condo/Co-op,766 Harrison St #202,San Francisco,CA,94107,393000,0,1.0,SAN FRANCISCO,244,,2008,1,1611,342,Active,August-3-2025 02:00 PM,August-3-2025 04:00 PM,https://www.redfin.com/CA/San-Francisco/766-Harrison-St-94107/unit-202/home/40138988,MLSListings,ML82016608,N,Y,37.7816524,-122.3991845
MLS Listing,,Single Family Residential,612 12th Ave,San Francisco,CA,94118,1998000,4,2.5,SF District 1,2750,2375,1915,1,727,,Active,August-2-2025 01:00 PM,August-2-2025 04:00 PM,https://www.redfin.com/CA/San-Francisco/612-12th-Ave-94118/home/1964481,San Francisco MLS,425061209,N,Y,37.7766048,-122.4701977
MLS Listing,,Multi-Family (2-4 Unit),745 Brazil Ave,San Francisco,CA,94112,1749000,8,3.5,San Francisco,4096,2500,1940,1,427,,Active,August-1-2025 04:00 PM,August-1-2025 06:00 PM,https://www.redfin.com/CA/San-Francisco/745-Brazil-Ave-94112/home/775573,MLSListings,ML82016578,N,Y,37.7218941,-122.428476
MLS Listing,,Condo/Co-op,473 S Van Ness Ave,San Francisco,CA,94103,1799000,4,3.0,SAN FRANCISCO,2000,3746,1900,1,900,326,Active,August-1-2025 05:00 PM,August-1-2025 07:00 PM,https://www.redfin.com/CA/San-Francisco/473-S-Van-Ness-Ave-94103/home/18775615,MLSListings,ML82016575,N,Y,37.765589,-122.4174423
MLS Listing,,Condo/Co-op,240 Lombard St #836,San Francisco,CA,94111,718000,1,1.0,SF District 8,617,50189,1993,1,1164,992,Active,August-3-2025 02:00 PM,August-3-2025 04:00 PM,https://www.redfin.com/CA/San-Francisco/240-Lombard-St-94111/unit-836/home/960619,San Francisco MLS,425061933,N,Y,37.8037832,-122.4052173
MLS Listing,,Condo/Co-op,298 Portola Dr #103,San Francisco,CA,94131,750000,1,1.0,SF District 5,755,21192,1996,1,993,628,Active,August-2-2025 02:00 PM,August-2-2025 04:00 PM,https://www.redfin.com/CA/San-Francisco/298-Portola-Dr-94131/unit-103/home/2027256,San Francisco MLS,425061720,N,Y,37.7472934,-122.4446828
MLS Listing,,Multi-Family (2-4 Unit),415-417 44th Ave,San Francisco,CA,94121,1998000,6,4.0,SAN FRANCISCO,3500,3000,1994,1,571,,Active,August-1-2025 04:00 PM,August-1-2025 06:00 PM,https://www.redfin.com/CA/San-Francisco/415-44th-Ave-94121/home/611231,MLSListings,ML82016551,N,Y,37.7807354,-122.5055012
MLS Listing,,Condo/Co-op,1839 15th St #253,San Francisco,CA,94103,695000,1,1.0,SF District 5,756,45289,1983,1,919,742,Active,August-2-2025 02:00 PM,August-2-2025 04:00 PM,https://www.redfin.com/CA/San-Francisco/1839-15th-St-94103/unit-253/home/704314,San Francisco MLS,425061407,N,Y,37.7654182,-122.4248381
MLS Listing,,Condo/Co-op,988 Harrison St Unit JR3,San Francisco,CA,94107,435000,1,1.0,SF District 9,,,1972,1,,535,Active,,,https://www.redfin.com/CA/San-Francisco/988-Harrison-St-94107/unit-JR3/home/196753459,San Francisco MLS,425061833,N,Y,37.7775861,-122.4041186
MLS Listing,,Condo/Co-op,988 Harrison St Unit CN5,San Francisco,CA,94107,769000,2,2.0,SF District 9,,,,1,,592,Active,August-2-2025 01:00 PM,August-2-2025 04:00 PM,https://www.redfin.com/CA/San-Francisco/988-Harrison-St-94107/unit-CN5/home/196752604,San Francisco MLS,425061834,N,Y,37.7775861,-122.4041186
MLS Listing,,Condo/Co-op,901 Bayshore Blvd #307,San Francisco,CA,94124,499000,2,2.0,SF District 10,1095,15164,2003,1,456,906,Active,August-2-2025 02:00 PM,August-2-2025 04:00 PM,https://www.redfin.com/CA/San-Francisco/901-Bay-Shore-Blvd-94124/unit-307/home/12402021,San Francisco MLS,425061998,N,Y,37.7326815,-122.4043029
MLS Listing,,Condo/Co-op,1288 Howard St #524,San Francisco,CA,94103,698000,1,1.0,SF District 9,584,37143,2022,1,1195,441,Active,,,https://www.redfin.com/CA/San-Francisco/1288-Howard-St-94103/unit-524/home/187402334,San Francisco MLS,425061997,N,Y,37.775436,-122.4130273
MLS Listing,,Condo/Co-op,1288 Howard St #418,San Francisco,CA,94103,998000,2,2.0,SF District 9,1011,37143,2022,1,987,467,Active,,,https://www.redfin.com/CA/San-Francisco/1288-Howard-St-94103/unit-418/home/187611286,San Francisco MLS,425062000,N,Y,37.775436,-122.4130273
MLS Listing,,Multi-Family (2-4 Unit),615-617 Octavia St,San Francisco,CA,94102,1600000,4,1.0,SF District 6,1880,1393,1900,1,851,,Active,,,https://www.redfin.com/CA/San-Francisco/615-617-Octavia-St-94102/home/196751080,San Francisco MLS,425058472,N,Y,37.777854,-122.425077
MLS Listing,,Condo/Co-op,1300 22nd St #410,San Francisco,CA,94107,1385000,2,2.0,SF District 9,1048,32000,2016,1,1322,1058,Active,August-2-2025 01:00 PM,August-2-2025 04:00 PM,https://www.redfin.com/CA/San-Francisco/1300-22nd-St-94107/unit-410/home/167315302,San Francisco MLS,425061038,N,Y,37.7578025,-122.3944136
MLS Listing,,Multi-Family (5+ Unit),22 Twin Peaks Blvd,San Francisco,CA,94114,1895000,6,,SF District 5,5217,3763,1960,1,363,,Active,,,https://www.redfin.com/CA/San-Francisco/22-Twin-Peaks-Blvd-94114/home/1899332,San Francisco MLS,425061383,N,Y,37.7608139,-122.446925
MLS Listing,,Single Family Residential,2067 20th Ave,San Francisco,CA,94116,1098000,3,2.0,SF District 2,1450,3001,1927,1,757,,Active,August-2-2025 02:00 PM,August-2-2025 04:00 PM,https://www.redfin.com/CA/San-Francisco/2067-20th-Ave-94116/home/904224,San Francisco MLS,425059573,N,Y,37.7492216,-122.4774835
MLS Listing,,Condo/Co-op,1916 Mason St,San Francisco,CA,94133,949000,3,1.0,SF District 8,1003,2875,1906,1,946,505,Active,August-2-2025 02:00 PM,August-2-2025 04:00 PM,https://www.redfin.com/CA/San-Francisco/1916-Mason-St-94133/home/1077800,San Francisco MLS,425058848,N,Y,37.801267,-122.412556
MLS Listing,,Condo/Co-op,329 Bay St #305,San Francisco,CA,94133,715000,1,1.0,SF District 8,659,8581,2007,1,1085,725,Active,,,https://www.redfin.com/CA/San-Francisco/329-Bay-St-94133/unit-305/home/21967120,San Francisco MLS,425061927,N,Y,37.8055553,-122.4127879
MLS Listing,,Condo/Co-op,110 Channel St #104,San Francisco,CA,94158,1398000,2,2.0,SF District 9,1030,49773,2017,1,1357,986,Active,,,https://www.redfin.com/CA/San-Francisco/110-Channel-St-94158/unit-104/home/167382781,San Francisco MLS,425061811,N,Y,37.7746482,-122.391105
MLS Listing,,Condo/Co-op,941 Lombard St,San Francisco,CA,94133,1495000,2,1.0,SF District 8,1066,4136,1913,1,1402,200,Active,,,https://www.redfin.com/CA/San-Francisco/941-Lombard-St-94133/home/851342,San Francisco MLS,425061430,N,Y,37.801948,-122.417032
MLS Listing,,Condo/Co-op,1565 Clay St,San Francisco,CA,94109,1798000,4,2.5,SF District 8,2035,5035,1908,1,884,800,Active,August-2-2025 01:30 PM,August-2-2025 04:30 PM,https://www.redfin.com/CA/San-Francisco/1565-Clay-St-94109/home/1682749,San Francisco MLS,425061627,N,Y,37.792466,-122.418775
MLS Listing,,Condo/Co-op,1177 California St #823,San Francisco,CA,94108,870000,1,1.0,SF District 8,706,31663,1978,1,1232,1415,Active,,,https://www.redfin.com/CA/San-Francisco/1177-California-St-94108/unit-823/home/1778990,San Francisco MLS,425061899,N,Y,37.7909986,-122.4137649
MLS Listing,,Other,826 Jackson St,San Francisco,CA,94133,2750000,20,,SF District 8,11100,6037,1928,1,248,,Active,,,https://www.redfin.com/CA/San-Francisco/826-Jackson-St-94133/home/191670018,San Francisco MLS,425061358,N,Y,37.795959,-122.408853
MLS Listing,,Multi-Family (2-4 Unit),1883-1885 16th Ave,San Francisco,CA,94122,1295000,2,2.0,SF District 2,1518,1128,1941,1,853,,Active,August-2-2025 02:00 PM,August-2-2025 04:00 PM,https://www.redfin.com/CA/San-Francisco/1883-1885-16th-Ave-94122/home/194790671,San Francisco MLS,425061896,N,Y,37.752846,-122.473334
MLS Listing,,Condo/Co-op,8400 Oceanview Ter #118,San Francisco,CA,94132,529000,1,1.0,SF District 3,669,325629,2002,1,791,835,Active,August-3-2025 02:00 PM,August-3-2025 04:30 PM,https://www.redfin.com/CA/San-Francisco/8400-Oceanview-Ter-94132/unit-118/home/1870495,San Francisco MLS,425061846,N,Y,37.7096596,-122.4686256
MLS Listing,,Condo/Co-op,808 Red Leaf Ct,San Francisco,CA,94134,628888,2,2.0,SAN FRANCISCO,906,,1987,1,694,768,Active,August-2-2025 02:00 PM,August-2-2025 04:30 PM,https://www.redfin.com/CA/San-Francisco/808-Red-Leaf-Ct-94134/home/1065723,MLSListings,ML82016438,N,Y,37.7086132,-122.4268917
MLS Listing,,Condo/Co-op,425 1st St #1506,San Francisco,CA,94105,1345000,2,2.0,SF District 9,1238,56024,2008,1,1086,1475,Active,August-3-2025 02:00 PM,August-3-2025 04:00 PM,https://www.redfin.com/CA/San-Francisco/425-1st-St-94105/unit-1506/home/17305661,San Francisco MLS,425060368,N,Y,37.7858649,-122.3921951
MLS Listing,,Multi-Family (2-4 Unit),440-442 29th St,San Francisco,CA,94131,4800000,6,2.0,SAN FRANCISCO,5416,2848,2015,1,886,,Active,,,https://www.redfin.com/CA/San-Francisco/442-29th-St-94131/home/171998742,MLSListings,ML82016429,N,Y,37.7436836,-122.4299193
MLS Listing,,Multi-Family (2-4 Unit),3386 16th St,San Francisco,CA,94114,1685000,6,4.5,San Francisco,3691,1733,1906,1,457,,Active,,,https://www.redfin.com/CA/San-Francisco/3386-16th-St-94114/home/180323147,"bridgeMLS, Bay East AOR, or Contra Costa AOR",41106559,N,Y,37.7647288,-122.4283541
MLS Listing,,Single Family Residential,29 Cameo Way,San Francisco,CA,94131,2295000,4,2.5,SF District 4,1862,4464,1962,1,1233,,Active,July-31-2025 04:00 PM,July-31-2025 05:00 PM,https://www.redfin.com/CA/San-Francisco/29-Cameo-Way-94131/home/928602,San Francisco MLS,425058159,N,Y,37.7453614,-122.4441413
MLS Listing,,Condo/Co-op,89 Goethe St #2,Daly City,CA,94014,650000,1,1.5,DALY CITY,1110,,2005,1,586,634,Active,,,https://www.redfin.com/CA/Daly-City/89-Goethe-St-94014/unit-2/home/2100412,MLSListings,ML82016410,N,Y,37.7081329,-122.4587837
MLS Listing,,Multi-Family (5+ Unit),578 Guerrero St,San Francisco,CA,94110,1390000,4,4.0,SF District 5,3635,2000,1913,1,382,,Active,,,https://www.redfin.com/CA/San-Francisco/578-Guerrero-St-94110/home/196696445,San Francisco MLS,425061734,N,Y,37.7618248,-122.4241332
MLS Listing,,Single Family Residential,137 Staples Ave,San Francisco,CA,94112,1295000,2,1.0,SF District 4,1382,3746,1923,1,937,,Active,August-2-2025 02:00 PM,August-2-2025 04:00 PM,https://www.redfin.com/CA/San-Francisco/137-Staples-Ave-94112/home/964793,San Francisco MLS,425061101,N,Y,37.7289304,-122.4452348
MLS Listing,,Multi-Family (2-4 Unit),49 High St,San Francisco,CA,94114,1799000,4,1.0,SF District 5,2830,5222,1977,1,636,,Active,,,https://www.redfin.com/CA/San-Francisco/49-High-St-94114/home/1590253,San Francisco MLS,425061714,N,Y,37.7485342,-122.4433306
MLS Listing,,Condo/Co-op,55 Page St #416,San Francisco,CA,94102,645000,0,1.0,SF District 6,479,25801,2008,1,1347,588,Active,August-2-2025 02:00 PM,August-2-2025 04:00 PM,https://www.redfin.com/CA/San-Francisco/55-Page-St-94102/unit-416/home/17306370,San Francisco MLS,425061434,N,Y,37.7737829,-122.4218176
MLS Listing,,Single Family Residential,2142 43rd Ave,San Francisco,CA,94116,1200000,2,1.0,SF District 2,1050,3001,1946,1,1143,,Active,August-2-2025 02:00 PM,August-2-2025 04:00 PM,https://www.redfin.com/CA/San-Francisco/2142-43rd-Ave-94116/home/1685403,San Francisco MLS,425023321,N,Y,37.7467018,-122.5015299
MLS Listing,,Single Family Residential,660 Cambridge St,San Francisco,CA,94134,1890000,5,3.5,SF District 10,3480,3000,2005,1,543,,Active,August-2-2025 01:00 PM,August-2-2025 03:00 PM,https://www.redfin.com/CA/San-Francisco/660-Cambridge-St-94134/home/11743157,MetroList,425061216,N,Y,37.7232864,-122.4173395
MLS Listing,,Condo/Co-op,555 Bartlett St #416,San Francisco,CA,94110,699000,1,1.0,SF District 9,744,30646,2010,1,940,733,Active,August-3-2025 02:00 PM,August-3-2025 04:00 PM,https://www.redfin.com/CA/San-Francisco/555-Bartlett-St-94110/unit-416/home/40143081,San Francisco MLS,425061595,N,Y,37.7484192,-122.4191075
MLS Listing,,Single Family Residential,3237 Harrison St,San Francisco,CA,94110,2999000,4,4.0,SF District 9,,2748,1900,1,,,Active,July-31-2025 04:30 PM,July-31-2025 06:30 PM,https://www.redfin.com/CA/San-Francisco/3237-Harrison-St-94110/home/1543498,San Francisco MLS,425046851,N,Y,37.7462516,-122.4113645
MLS Listing,,Single Family Residential,32 Mars St,San Francisco,CA,94114,995000,1,2.0,SF District 5,835,2735,1925,1,1192,,Active,July-31-2025 05:30 PM,July-31-2025 07:00 PM,https://www.redfin.com/CA/San-Francisco/32-Mars-St-94114/home/1996779,San Francisco MLS,425059848,N,Y,37.7614492,-122.4447726
MLS Listing,,Multi-Family (5+ Unit),1013-1019a Noe St,San Francisco,CA,94114,2550000,6,1.0,SF District 5,4930,3306,1908,1,517,,Active,,,https://www.redfin.com/CA/San-Francisco/1013-1019-Noe-St-94114/home/102824524,San Francisco MLS,425060444,N,Y,37.752752,-122.431681
MLS Listing,,Single Family Residential,1532 Pacheco,San Francisco,CA,94116,1288000,3,3.5,Central Sunset,,2650,1926,2,,,Active,August-2-2025 02:00 PM,August-2-2025 04:30 PM,https://www.redfin.com/CA/San-Francisco/1532-Pacheco-St-94116/home/904124,"bridgeMLS, Bay East AOR, or Contra Costa AOR",41106458,N,Y,37.7506888,-122.4768775
MLS Listing,,Vacant Land,1531 Jerrold Ave,San Francisco,CA,94124,340000,,,San Francisco,,2500,,2,,,Active,,,https://www.redfin.com/CA/San-Francisco/1531-Jerrold-Ave-94124/home/110063121,MLSListings,ML82016280,N,Y,37.737941,-122.388432
MLS Listing,,Condo/Co-op,765 Market St Ph 3A,San Francisco,CA,94103,9995000,3,4.0,SAN FRANCISCO,4341,,2001,2,2302,5284,Active,,,https://www.redfin.com/CA/San-Francisco/765-Market-St-94103/unit-3A/home/190560994,MLSListings,ML82016275,N,Y,37.7863495,-122.4045519
MLS Listing,,Single Family Residential,1910 Baker St,San Francisco,CA,94115,5995000,5,5.5,SF District 7,,2613,1900,2,,,Active,August-2-2025 11:00 AM,August-2-2025 01:00 PM,https://www.redfin.com/CA/San-Francisco/1910-Baker-St-94115/home/1217609,San Francisco MLS,425061415,N,Y,37.789022,-122.4437847
MLS Listing,,Condo/Co-op,2060 Sutter St #405,San Francisco,CA,94115,1149000,2,2.0,SF District 6,1215,35698,1984,2,946,948,Active,July-31-2025 05:00 PM,July-31-2025 06:30 PM,https://www.redfin.com/CA/San-Francisco/2060-Sutter-St-94115/unit-405/home/1642705,San Francisco MLS,425057350,N,Y,37.7861255,-122.4343893
MLS Listing,,Condo/Co-op,1 Federal St #12,San Francisco,CA,94107,324383,0,1.0,SF District 9,870,22442,2003,2,373,925,Active,August-2-2025 02:00 PM,August-2-2025 04:00 PM,https://www.redfin.com/CA/San-Francisco/1-Federal-St-94107/unit-12/home/1258256,San Francisco MLS,425059268,N,Y,37.783983,-122.39114
MLS Listing,,Condo/Co-op,1340 Clay St #403,San Francisco,CA,94109,2000000,2,2.0,SF District 8,1630,13212,1991,2,1227,3163,Active,,,https://www.redfin.com/CA/San-Francisco/1340-Clay-St-94109/unit-403/home/1442317,San Francisco MLS,425061353,N,Y,37.79332,-122.4153392
MLS Listing,,Condo/Co-op,2040 Broadway St #102,San Francisco,CA,94115,1650000,2,2.0,SF District 7,1330,9448,1988,3,1241,1640,Active,July-31-2025 05:00 PM,July-31-2025 06:00 PM,https://www.redfin.com/CA/San-Francisco/2040-Broadway-St-94115/unit-102/home/1983938,San Francisco MLS,425048333,N,Y,37.7950319,-122.4312548
MLS Listing,,Condo/Co-op,2930 Baker St,San Francisco,CA,94123,2395000,2,2.5,SF District 7,2105,2657,1927,3,1138,600,Active,July-31-2025 05:00 PM,July-31-2025 07:00 PM,https://www.redfin.com/CA/San-Francisco/2930-Baker-St-94123/home/2018304,San Francisco MLS,425052698,N,Y,37.7981802,-122.445607
MLS Listing,,Single Family Residential,325 Bridgeview Dr,San Francisco,CA,94124,699000,4,2.0,SAN FRANCISCO,1570,2500,1942,3,445,,Active,,,https://www.redfin.com/CA/San-Francisco/325-Bridgeview-Dr-94124/home/1711848,MLSListings,ML82016112,N,Y,37.7327262,-122.398045
MLS Listing,,Multi-Family (5+ Unit),1800 19th Ave,San Francisco,CA,94112,2500000,,,SAN FRANCISCO,3140,2178,1932,3,796,,Active,,,https://www.redfin.com/CA/San-Francisco/1800-19th-Ave-94122/home/104012887,MLSListings,ML82016116,N,Y,37.7541229,-122.4760792
MLS Listing,,Condo/Co-op,338 main St Unit 26D,San Francisco,CA,94501,1265000,1,1.0,San Francisco,975,62290,2016,3,1297,1300,Active,,,https://www.redfin.com/CA/San-Francisco/338-Main-St-94105/unit-26D/home/110052545,CRMLS,OC25164214,N,Y,37.7887038,-122.3914964
MLS Listing,,Multi-Family (2-4 Unit),3102 California St,San Francisco,CA,94115,1250000,5,,SF District 7,,1999,,3,,,Active,August-5-2025 10:00 AM,August-5-2025 12:00 PM,https://www.redfin.com/CA/San-Francisco/3102-California-St-94115/home/586943,San Francisco MLS,425061102,N,Y,37.7876213,-122.4457063
MLS Listing,,Other,3100 California St,San Francisco,CA,94115,1200000,4,1.0,SF District 7,2750,1999,,3,436,,Active,August-5-2025 10:00 AM,August-5-2025 12:00 PM,https://www.redfin.com/CA/San-Francisco/3100-California-St-94115/home/196653219,San Francisco MLS,425061107,N,Y,37.7876621,-122.4455959
MLS Listing,,Multi-Family (2-4 Unit),41-43 Mallorca Way,San Francisco,CA,94123,2495000,4,,SF District 7,2800,2278,1925,3,891,,Active,July-31-2025 05:00 PM,July-31-2025 06:30 PM,https://www.redfin.com/CA/San-Francisco/43-Mallorca-Way-94123/home/190508336,San Francisco MLS,425061110,N,Y,37.8014062,-122.4376189
MLS Listing,,Multi-Family (2-4 Unit),833 Scott St,San Francisco,CA,94117,3200000,15,5.5,San Francisco,6238,2652,1905,3,513,,Active,,,https://www.redfin.com/CA/San-Francisco/833-Scott-St-94117/home/595777,"bridgeMLS, Bay East AOR, or Contra Costa AOR",41106329,N,Y,37.777536,-122.436909
MLS Listing,,Single Family Residential,536 Funston Ave,San Francisco,CA,94118,2695000,4,3.5,SF District 1,3361,3001,1912,3,802,,Active,August-3-2025 02:00 PM,August-3-2025 04:00 PM,https://www.redfin.com/CA/San-Francisco/536-Funston-Ave-94118/home/1888750,San Francisco MLS,425059738,N,Y,37.7781179,-122.4713665
MLS Listing,,Multi-Family (5+ Unit),2854 Sacramento St,San Francisco,CA,94115,3800000,,,San Francisco,5250,3188,1906,3,724,,Active,,,https://www.redfin.com/CA/San-Francisco/2854-Sacramento-St-94115/home/196648752,"bridgeMLS, Bay East AOR, or Contra Costa AOR",41106316,N,Y,37.7892266,-122.4399063
MLS Listing,,Condo/Co-op,1483 Sutter St #401,San Francisco,CA,94109,665000,1,1.0,SF District 8,801,48636,1993,3,830,941,Active,August-3-2025 02:00 PM,August-3-2025 04:00 PM,https://www.redfin.com/CA/San-Francisco/1483-Sutter-St-94109/unit-401/home/2007211,San Francisco MLS,425060050,N,Y,37.7869544,-122.4241886
MLS Listing,,Condo/Co-op,55 Page St #817,San Francisco,CA,94102,849000,1,1.0,SF District 6,746,25801,2008,3,1138,682,Active,,,https://www.redfin.com/CA/San-Francisco/55-Page-St-94102/unit-817/home/17306589,San Francisco MLS,425060762,N,Y,37.7737829,-122.4218176
MLS Listing,,Single Family Residential,48 Terra Vista Ave Unit A,San Francisco,CA,94115,799000,1,1.0,SF District 6,865,3057,1951,3,924,300,Active,July-31-2025 05:00 PM,July-31-2025 06:30 PM,https://www.redfin.com/CA/San-Francisco/48-Terra-Vista-Ave-94115/unit-A/home/11893354,San Francisco MLS,425060319,N,Y,37.7817099,-122.442624
MLS Listing,,Single Family Residential,3144 22nd St,San Francisco,CA,94110,1000000,3,1.5,SF District 9,1761,2694,1900,3,568,400,Active,August-6-2025 06:00 PM,August-6-2025 07:00 PM,https://www.redfin.com/CA/San-Francisco/3144-3148-22nd-St-94110/home/194168677,San Francisco MLS,425061060,N,Y,37.755713,-122.417518
MLS Listing,,Condo/Co-op,1207 Arguello Blvd,San Francisco,CA,94122,1788000,3,2.5,SF District 2,1405,,1908,3,1273,295,Active,August-3-2025 01:00 PM,August-3-2025 04:00 PM,https://www.redfin.com/CA/San-Francisco/1207-Arguello-Blvd-94122/home/1399958,San Francisco MLS,425059594,N,Y,37.7658839,-122.458018
MLS Listing,,Condo/Co-op,3131 Pierce St #406,San Francisco,CA,94123,1695000,2,2.0,SF District 7,1053,13287,2021,3,1610,941,Active,August-2-2025 02:00 PM,August-2-2025 04:00 PM,https://www.redfin.com/CA/San-Francisco/3131-Pierce-St-94123/unit-406/home/175155344,San Francisco MLS,425057473,N,Y,37.7989774,-122.4394952
MLS Listing,,Single Family Residential,1731 40th Ave,San Francisco,CA,94122,1195000,2,1.0,SF District 2,1175,3001,1940,3,1017,,Active,July-31-2025 05:30 PM,July-31-2025 07:00 PM,https://www.redfin.com/CA/San-Francisco/1731-40th-Ave-94122/home/642674,San Francisco MLS,425060537,N,Y,37.7544864,-122.4993254
MLS Listing,,Single Family Residential,843 Mason St,San Francisco,CA,94108,4650000,5,5.0,SF District 8,4427,2047,1917,3,1050,,Active,August-3-2025 02:00 PM,August-3-2025 04:00 PM,https://www.redfin.com/CA/San-Francisco/843-Mason-St-94108/home/1626283,San Francisco MLS,425060484,N,Y,37.7914052,-122.4110014
MLS Listing,,Single Family Residential,873 University St,San Francisco,CA,94134,1600000,4,2.0,SF District 10,1800,1750,1964,4,889,,Active,,,https://www.redfin.com/CA/San-Francisco/873-University-St-94134/home/1006244,MetroList,425061068,N,Y,37.7194132,-122.4109727
MLS Listing,,Condo/Co-op,1483 Sutter St #301,San Francisco,CA,94109,750000,1,1.0,SF District 8,801,,1993,4,936,883,Active,,,https://www.redfin.com/CA/San-Francisco/1483-Sutter-St-94109/unit-301/home/930963,San Francisco MLS,425060867,N,Y,37.7869544,-122.4241886
MLS Listing,,Multi-Family (2-4 Unit),1840 Church St,San Francisco,CA,94131,2750000,6,3.5,SAN FRANCISCO,2640,3123,1979,5,1042,,Active,,,https://www.redfin.com/CA/San-Francisco/1840-Church-St-94131/home/1850334,MLSListings,ML82016013,N,Y,37.741048,-122.42705
MLS Listing,,Condo/Co-op,360 Guerrero St #415,San Francisco,CA,94103,515000,0,1.0,SF District 5,602,45289,1983,6,855,691,Active,,,https://www.redfin.com/CA/San-Francisco/360-Guerrero-St-94103/unit-415/home/704455,San Francisco MLS,425060773,N,Y,37.765436,-122.424864
MLS Listing,,Single Family Residential,150 Cresta Vista Dr,San Francisco,CA,94127,1598000,3,2.0,SF District 4,1400,3358,1964,6,1141,,Active,August-2-2025 02:00 PM,August-2-2025 04:00 PM,https://www.redfin.com/CA/San-Francisco/150-Cresta-Vista-Dr-94127/home/1462814,BAREIS,425060755,N,Y,37.7355007,-122.4564442
MLS Listing,,Multi-Family (2-4 Unit),529-531 37th Ave,San Francisco,CA,94121,1950000,6,5.0,SF District 1,3641,3001,1960,6,536,,Active,,,https://www.redfin.com/CA/San-Francisco/529-531-37th-Ave-94121/home/196618121,San Francisco MLS,425058716,N,Y,37.778807,-122.497871
MLS Listing,,Single Family Residential,783 31st Ave,San Francisco,CA,94121,1998000,5,4.0,SAN FRANCISCO,2730,2247,1926,6,732,,Active,,,https://www.redfin.com/CA/San-Francisco/783-31st-Ave-94121/home/1001028,MLSListings,ML82015990,N,Y,37.774492,-122.4910388
MLS Listing,,Single Family Residential,496 Ellsworth St,San Francisco,CA,94110,899000,1,1.0,SF District 9,840,1751,1920,6,1070,,Active,July-31-2025 05:30 PM,July-31-2025 06:30 PM,https://www.redfin.com/CA/San-Francisco/496-Ellsworth-St-94110/home/1471596,San Francisco MLS,425060588,N,Y,37.7373495,-122.4149025
MLS Listing,,Single Family Residential,66 Athens St,San Francisco,CA,94112,799000,3,2.0,SF District 10,1313,2495,1950,6,609,,Active,July-31-2025 05:00 PM,July-31-2025 07:00 PM,https://www.redfin.com/CA/San-Francisco/66-Athens-St-94112/home/1752241,San Francisco MLS,425060782,N,Y,37.7270416,-122.4246363
MLS Listing,,Single Family Residential,129 Meadowbrook Dr,San Francisco,CA,94132,1490000,3,2.0,SF District 3,1678,2500,1941,6,888,,Active,August-3-2025 02:00 PM,August-3-2025 04:00 PM,https://www.redfin.com/CA/San-Francisco/129-Meadowbrook-Dr-94132/home/839464,San Francisco MLS,425060344,N,Y,37.731858,-122.48477
MLS Listing,,Single Family Residential,161 Castro St Unit C,San Francisco,CA,94114,865000,2,1.0,SF District 5,,1999,1900,6,,399,Active,August-2-2025 02:00 PM,August-2-2025 04:00 PM,https://www.redfin.com/CA/San-Francisco/161-Castro-St-94114/unit-C/home/170557585,San Francisco MLS,425060472,N,Y,37.766319,-122.435247
MLS Listing,,Condo/Co-op,601 Van Ness Ave #847,San Francisco,CA,94102,399000,1,1.0,SF District 8,621,105807,1982,6,643,1103,Active,,,https://www.redfin.com/CA/San-Francisco/601-Van-Ness-Ave-94102/unit-847/home/1460056,San Francisco MLS,425060764,N,Y,37.7814909,-122.4208963
MLS Listing,,Condo/Co-op,1288 Howard St #515,San Francisco,CA,94103,548000,0,1.0,SF District 9,463,37143,2022,6,1184,528,Active,,,https://www.redfin.com/CA/San-Francisco/1288-Howard-St-94103/unit-515/home/187611303,San Francisco MLS,425060798,N,Y,37.775436,-122.4130273
MLS Listing,,Single Family Residential,834 Florida St,San Francisco,CA,94110,674000,3,1.0,SF District 9,1920,2596,1900,6,351,,Active,,,https://www.redfin.com/CA/San-Francisco/834-Florida-St-94110/home/196616402,San Francisco MLS,425060774,N,Y,37.7585035,-122.4108778
MLS Listing,,Single Family Residential,832 Florida St,San Francisco,CA,94110,450000,3,1.0,SF District 9,1113,2596,1900,6,404,,Active,July-31-2025 05:00 PM,July-31-2025 07:00 PM,https://www.redfin.com/CA/San-Francisco/832-Florida-St-94110/home/729949,San Francisco MLS,425060761,N,Y,37.758498,-122.410896
MLS Listing,,Condo/Co-op,117 Telegraph Hill Blvd,San Francisco,CA,94133,7880000,4,5.5,SF District 8,4190,,,6,1881,,Active,,,https://www.redfin.com/CA/San-Francisco/117-Telegraph-Hill-Blvd-94133/home/181636380,BAREIS,425059731,N,Y,37.8016222,-122.4059638
MLS Listing,,Condo/Co-op,400 Beale St #403,San Francisco,CA,94105,475000,1,1.0,SF District 9,770,27582,2002,6,617,1153,Active,August-3-2025 02:00 PM,August-3-2025 04:00 PM,https://www.redfin.com/CA/San-Francisco/400-Beale-St-94105/unit-403/home/868164,San Francisco MLS,425059353,N,Y,37.7870715,-122.3909973
MLS Listing,,Single Family Residential,18 Cragmont Ave,San Francisco,CA,94116,2495000,3,3.5,SF District 2,2318,4251,1958,6,1076,,Active,August-2-2025 02:00 PM,August-2-2025 04:00 PM,https://www.redfin.com/CA/San-Francisco/18-Cragmont-Ave-94116/home/953706,San Francisco MLS,425050160,N,Y,37.7510855,-122.4682734
MLS Listing,,Multi-Family (2-4 Unit),374-376 Funston Ave,San Francisco,CA,94118,1725000,6,4.0,SF District 1,4116,2996,1922,6,419,,Active,,,https://www.redfin.com/CA/San-Francisco/374-376-Funston-Ave-94118/home/190760896,San Francisco MLS,425053468,N,Y,37.781241,-122.471488
MLS Listing,,Single Family Residential,58 Sala Ter,San Francisco,CA,94112,950000,2,2.0,SF District 10,1309,2204,1926,6,726,,Active,August-2-2025 02:00 PM,August-2-2025 04:00 PM,https://www.redfin.com/CA/San-Francisco/58-Sala-Ter-94112/home/825265,San Francisco MLS,425059375,N,Y,37.7143658,-122.4455442
MLS Listing,,Condo/Co-op,1520 Taylor St #501,San Francisco,CA,94133,1250000,2,2.0,SF District 8,1130,9375,1976,6,1106,914,Active,August-3-2025 02:00 PM,August-3-2025 04:00 PM,https://www.redfin.com/CA/San-Francisco/1520-Taylor-St-94133/unit-501/home/1529265,San Francisco MLS,425057401,N,Y,37.7964466,-122.413234
MLS Listing,,Condo/Co-op,884 York St,San Francisco,CA,94110,979000,2,1.0,SAN FRANCISCO,1350,2494,1902,6,725,,Active,August-2-2025 02:00 PM,August-2-2025 04:00 PM,https://www.redfin.com/CA/San-Francisco/884-York-St-94110/home/167314448,MLSListings,ML82015920,N,Y,37.7580242,-122.408921
MLS Listing,,Single Family Residential,424 Francisco St,San Francisco,CA,94133,949000,2,2.0,SF District 8,1025,2748,1906,6,926,555,Active,August-2-2025 02:00 PM,August-2-2025 04:00 PM,https://www.redfin.com/CA/San-Francisco/424-Francisco-St-94133/home/2030219,San Francisco MLS,425055304,N,Y,37.805003,-122.412326
MLS Listing,,Single Family Residential,95 Nordhoff St,San Francisco,CA,94131,3988000,4,5.0,SAN FRANCISCO,2461,2813,2025,6,1620,,Active,,,https://www.redfin.com/CA/San-Francisco/95-Nordhoff-St-94131/home/187348787,MLSListings,ML82012185,N,Y,37.734336,-122.4413051
MLS Listing,,Single Family Residential,1625 Vallejo St,San Francisco,CA,94123,5995000,4,4.5,SF District 7,3675,3040,1900,6,1631,,Active,August-2-2025 02:00 PM,August-2-2025 04:00 PM,https://www.redfin.com/CA/San-Francisco/1625-Vallejo-St-94123/home/1216918,San Francisco MLS,425056523,N,Y,37.796344,-122.4247597
MLS Listing,,Single Family Residential,1287 Geneva Ave,San Francisco,CA,94112,848000,3,1.5,SF District 10,1714,2495,1923,6,495,,Active,August-2-2025 01:00 PM,August-2-2025 03:00 PM,https://www.redfin.com/CA/San-Francisco/1287-Geneva-Ave-94112/home/1503867,San Francisco MLS,425060338,N,Y,37.7137895,-122.4346488
MLS Listing,,Multi-Family (2-4 Unit),2500-2502 25th St,San Francisco,CA,94110,1250000,8,3.0,SF District 9,3650,1912,1915,6,342,,Active,,,https://www.redfin.com/CA/San-Francisco/2502-25th-St-94110/home/148077095,San Francisco MLS,425056137,N,Y,37.7520483,-122.4034996
MLS Listing,,Single Family Residential,87 Whittier St,San Francisco,CA,94112,998000,3,1.0,SF District 10,1285,1842,1925,6,777,,Active,July-31-2025 04:00 PM,July-31-2025 06:00 PM,https://www.redfin.com/CA/San-Francisco/87-Whittier-St-94112/home/1918236,San Francisco MLS,425059641,N,Y,37.7093725,-122.4476306
MLS Listing,,Single Family Residential,1007 Portola Dr,San Francisco,CA,94127,1650000,3,2.0,SF District 4,1395,3545,1926,6,1183,,Active,August-2-2025 02:00 PM,August-2-2025 04:00 PM,https://www.redfin.com/CA/San-Francisco/1007-Portola-Dr-94127/home/1395360,San Francisco MLS,425057524,N,Y,37.7417202,-122.4557232
MLS Listing,,Single Family Residential,470 Madrid St,San Francisco,CA,94112,950000,3,2.0,SF District 10,1394,2495,1960,6,681,,Active,August-2-2025 01:00 PM,August-2-2025 03:00 PM,https://www.redfin.com/CA/San-Francisco/470-Madrid-St-94112/home/1214227,San Francisco MLS,425059757,N,Y,37.7221643,-122.4326604
MLS Listing,,Single Family Residential,325 Pope St,San Francisco,CA,94112,899000,3,2.0,SF District 10,1546,2996,1928,6,582,,Active,,,https://www.redfin.com/CA/San-Francisco/325-Pope-St-94112/home/796411,MetroList,425057438,N,Y,37.7111747,-122.4397717
MLS Listing,,Single Family Residential,667 39th Ave,San Francisco,CA,94121,1399000,5,2.5,SF District 1,1884,2996,1924,7,743,,Active,August-2-2025 01:30 PM,August-2-2025 04:00 PM,https://www.redfin.com/CA/San-Francisco/667-39th-Ave-94121/home/619107,San Francisco MLS,425060531,N,Y,37.7762386,-122.4997896
MLS Listing,,Single Family Residential,56 Harper St,San Francisco,CA,94131,1795000,2,2.0,SF District 5,1600,1999,1914,7,1122,,Active,July-31-2025 04:00 PM,July-31-2025 05:30 PM,https://www.redfin.com/CA/San-Francisco/56-Harper-St-94131/home/1133796,San Francisco MLS,425058907,N,Y,37.7408746,-122.4300889
MLS Listing,,Condo/Co-op,8 Buchanan St #505,San Francisco,CA,94102,1250000,2,2.0,SF District 6,1025,21140,2014,7,1220,830,Active,August-3-2025 02:00 PM,August-3-2025 04:00 PM,https://www.redfin.com/CA/San-Francisco/8-Buchanan-St-94102/unit-505/home/110051321,San Francisco MLS,425060502,N,Y,37.7699851,-122.4265079
MLS Listing,,Single Family Residential,651 41st Ave,San Francisco,CA,94121,2750000,5,4.0,SAN FRANCISCO,2345,2252,1923,7,1173,,Active,July-31-2025 04:00 PM,July-31-2025 06:00 PM,https://www.redfin.com/CA/San-Francisco/651-41st-Ave-94121/home/2003929,MLSListings,ML82015497,N,Y,37.7764137,-122.5019154
MLS Listing,,Condo/Co-op,2415 Van Ness Ave #202,San Francisco,CA,94109,500000,1,1.0,SF District 7,566,5520,1926,7,883,822,Active,,,https://www.redfin.com/CA/San-Francisco/2415-Van-Ness-Ave-94109/unit-202/home/1226956,MetroList,425059182,N,Y,37.7978854,-122.4242247
MLS Listing,,Multi-Family (5+ Unit),1732-1736 Page St,San Francisco,CA,94117,2995000,24,4.0,SF District 5,6375,3436,1909,7,470,,Active,,,https://www.redfin.com/CA/San-Francisco/1732-1736-Page-St-94117/home/196594968,San Francisco MLS,425060364,N,Y,37.7709339,-122.44943
MLS Listing,,Multi-Family (5+ Unit),1738-1742 Page St,San Francisco,CA,94117,2995000,24,4.0,SF District 5,6375,3436,1909,7,470,,Active,,,https://www.redfin.com/CA/San-Francisco/1738-1742-Page-St-94117/home/196594966,San Francisco MLS,425060416,N,Y,37.770923,-122.449515
MLS Listing,,Multi-Family (5+ Unit),1418 Leavenworth St,San Francisco,CA,94109,3750000,19,,SF District 8,11436,5000,1907,7,328,,Active,,,https://www.redfin.com/CA/San-Francisco/1418-Leavenworth-St-94109/home/196591780,San Francisco MLS,425060359,N,Y,37.7942317,-122.4160896
MLS Listing,,Condo/Co-op,156 Lombard St #14,San Francisco,CA,94111,1075000,2,2.5,SF District 8,1388,94533,1975,7,774,1702,Active,August-3-2025 02:00 PM,August-3-2025 04:00 PM,https://www.redfin.com/CA/San-Francisco/156-Lombard-St-94111/unit-14/home/1424946,San Francisco MLS,425059748,N,Y,37.804528,-122.404291
MLS Listing,,Condo/Co-op,2133 Balboa St,San Francisco,CA,94121,1695000,4,3.0,SF District 1,2050,2495,,7,827,350,Active,,,https://www.redfin.com/CA/San-Francisco/2133-Balboa-St-94121/home/194777970,San Francisco MLS,425043645,N,Y,37.7763143,-122.4818517
MLS Listing,,Single Family Residential,2580 Mcallister St,San Francisco,CA,94118,4395000,5,5.5,SF District 1,3900,2125,,7,1127,,Active,August-3-2025 02:00 PM,August-3-2025 04:00 PM,https://www.redfin.com/CA/San-Francisco/2580-McAllister-St-94118/home/1484163,San Francisco MLS,425057436,N,Y,37.7757296,-122.4546191
MLS Listing,,Multi-Family (2-4 Unit),597 Lincoln Way,San Francisco,CA,94122,2399000,8,5.0,SF District 2,4095,1925,1990,7,586,,Active,,,https://www.redfin.com/CA/San-Francisco/597-Lincoln-Way-94122/home/1799504,San Francisco MLS,425059809,N,Y,37.7658045,-122.4641281
MLS Listing,,Single Family Residential,65 Ottawa Ave,San Francisco,CA,94112,1075000,2,1.0,SF District 10,1300,2188,1927,7,827,,Active,July-31-2025 04:00 PM,July-31-2025 06:00 PM,https://www.redfin.com/CA/San-Francisco/65-Ottawa-Ave-94112/home/2017676,San Francisco MLS,425060239,N,Y,37.7145363,-122.4452043
MLS Listing,,Condo/Co-op,400 Beale St #1413,San Francisco,CA,94105,799999,1,1.0,SAN FRANCISCO,854,27851,2001,7,937,1181,Active,August-2-2025 02:00 PM,August-2-2025 04:00 PM,https://www.redfin.com/CA/San-Francisco/400-Beale-St-94105/unit-1413/home/12398971,MLSListings,ML81987712,N,Y,37.7870715,-122.3909973
MLS Listing,,Condo/Co-op,146 Capra Way,San Francisco,CA,94123,1775000,2,2.0,SF District 7,1300,2178,1935,7,1365,343,Active,,,https://www.redfin.com/CA/San-Francisco/146-Capra-Way-94123/home/177198735,San Francisco MLS,425060245,N,Y,37.8027626,-122.4405931
MLS Listing,,Multi-Family (2-4 Unit),1501-1503 29th Ave,San Francisco,CA,94122,895000,1,,SF District 2,1263,993,1941,7,709,,Active,August-3-2025 12:00 PM,August-3-2025 02:00 PM,https://www.redfin.com/CA/San-Francisco/1501-1503-29th-Ave-94122/home/194785917,San Francisco MLS,425060156,N,Y,37.759201,-122.487746
MLS Listing,,Condo/Co-op,3310 19th St #303,San Francisco,CA,94110,1395000,3,2.5,SF District 9,1670,3746,2002,7,835,988,Active,August-2-2025 02:00 PM,August-2-2025 04:00 PM,https://www.redfin.com/CA/San-Francisco/3310-19th-St-94110/unit-303/home/1864634,San Francisco MLS,425057429,N,Y,37.7605103,-122.4173271
MLS Listing,,Single Family Residential,841 Geneva Ave,San Francisco,CA,94112,1080000,5,3.0,SAN FRANCISCO,3158,3689,1924,7,342,,Active,,,https://www.redfin.com/CA/San-Francisco/841-Geneva-Ave-94112/home/1142463,MLSListings,ML82004126,N,Y,37.7175021,-122.4415458
MLS Listing,,Condo/Co-op,2200 Sacramento St #403,San Francisco,CA,94115,1495000,2,2.0,SF District 7,1130,17550,1964,7,1323,1228,Active,,,https://www.redfin.com/CA/San-Francisco/2200-Sacramento-St-94115/unit-403/home/1723394,San Francisco MLS,425058809,N,Y,37.7906712,-122.4294937
MLS Listing,,Condo/Co-op,2655 Bush St #431,San Francisco,CA,94115,1295000,2,2.0,SF District 6,1115,33520,2017,7,1161,1036,Active,,,https://www.redfin.com/CA/San-Francisco/2655-Bush-St-94115/unit-431/home/196572493,San Francisco MLS,425057767,N,Y,37.7860369,-122.440572
MLS Listing,,Single Family Residential,43-B Sussex St,San Francisco,CA,94131,895000,2,1.5,SF District 5,,2103,1910,7,,317,Active,August-2-2025 02:00 PM,August-2-2025 04:00 PM,https://www.redfin.com/CA/San-Francisco/43-Sussex-St-94131/home/194781286,San Francisco MLS,425059714,N,Y,37.7363742,-122.4336814
MLS Listing,,Condo/Co-op,988 Harrison St Unit YH2,San Francisco,CA,94107,675000,2,2.0,SF District 9,,,,8,,592,Active,August-2-2025 01:00 PM,August-2-2025 04:00 PM,https://www.redfin.com/CA/San-Francisco/988-Harrison-St-94107/unit-YH2/home/196564154,San Francisco MLS,425060052,N,Y,37.7775861,-122.4041186
MLS Listing,,Condo/Co-op,988 Harrison St Unit HL4,San Francisco,CA,94107,649000,2,2.0,SF District 9,,,,8,,592,Active,August-2-2025 01:00 PM,August-2-2025 04:00 PM,https://www.redfin.com/CA/San-Francisco/988-Harrison-St-94107/unit-HL4/home/196563750,San Francisco MLS,425060051,N,Y,37.7775861,-122.4041186
MLS Listing,,Multi-Family (2-4 Unit),134-136A 17th Ave,San Francisco,CA,94121,3388000,8,7.0,SF District 1,4000,2996,1913,8,847,,Active,August-3-2025 02:00 PM,August-3-2025 04:00 PM,https://www.redfin.com/CA/San-Francisco/136-17th-Ave-94121/home/196482373,San Francisco MLS,425060088,N,Y,37.7854736,-122.4763928
MLS Listing,,Single Family Residential,1234 Francisco St #2,San Francisco,CA,94123,2100000,4,4.0,SF District 7,,2064,1924,8,,757,Active,August-3-2025 02:00 PM,August-3-2025 04:00 PM,https://www.redfin.com/CA/San-Francisco/1234-Francisco-St-94123/unit-2/home/196563053,San Francisco MLS,425059993,N,Y,37.8033561,-122.4256703
MLS Listing,,Multi-Family (2-4 Unit),1608 Folsom St,San Francisco,CA,94103,2095000,6,5.0,SF District 9,4185,2186,1914,8,501,,Active,,,https://www.redfin.com/CA/San-Francisco/1608-Folsom-St-94103/home/1694641,San Francisco MLS,425059656,N,Y,37.7707819,-122.415372
MLS Listing,,Single Family Residential,250 Mansell St,San Francisco,CA,94134,1078000,3,2.0,PORTOLA,1822,1822,1964,8,592,,Active,August-1-2025 11:00 AM,August-1-2025 01:00 PM,https://www.redfin.com/CA/San-Francisco/250-Mansell-St-94134/home/1016689,"bridgeMLS, Bay East AOR, or Contra Costa AOR",41103516,N,Y,37.7211456,-122.4037207
MLS Listing,,Single Family Residential,1482 38th Ave,San Francisco,CA,94122,998000,2,1.5,SAN FRANCISCO,1375,2375,1937,8,726,,Active,,,https://www.redfin.com/CA/San-Francisco/1482-38th-Ave-94122/home/632350,MLSListings,ML82015676,N,Y,37.7593018,-122.4970287
MLS Listing,,Multi-Family (5+ Unit),807 Burnette Ave,San Francisco,CA,94131,2800000,,,SAN FRANCISCO,5174,4239,1974,8,541,,Active,,,https://www.redfin.com/CA/San-Francisco/807-Burnett-Ave-94131/home/681096,MLSListings,ML82015609,N,Y,37.7495403,-122.4445983
MLS Listing,,Other,545-555 Hyde St,San Francisco,CA,94109,2200000,17,,SF District 8,10297,2188,1911,8,214,,Active,,,https://www.redfin.com/CA/San-Francisco/545-555-Hyde-St-94109/home/194783849,San Francisco MLS,425059897,N,Y,37.786081,-122.416561
MLS Listing,,Single Family Residential,1830 Egbert Ave Unit A,San Francisco,CA,94124,625000,4,3.0,SAN FRANCISCO,2811,1463,1951,8,222,,Active,,,https://www.redfin.com/CA/San-Francisco/1830-Egbert-Ave-94124/unit-A/home/177206627,MLSListings,ML82015595,N,Y,37.7275447,-122.4008333
MLS Listing,,Single Family Residential,31 Romolo Pl #6,San Francisco,CA,94133,799000,2,1.0,SF District 8,,2300,1911,8,,655,Active,August-2-2025 01:00 PM,August-2-2025 03:00 PM,https://www.redfin.com/CA/San-Francisco/31-Romolo-Pl-94133/unit-6/home/195094534,San Francisco MLS,425059853,N,Y,37.7983472,-122.4064623
MLS Listing,,Single Family Residential,646 Paris St,San Francisco,CA,94112,1098888,4,2.0,SF District 10,,2495,1907,8,,,Active,,,https://www.redfin.com/CA/San-Francisco/646-Paris-St-94112/home/1257052,San Francisco MLS,425051103,N,Y,37.7186263,-122.4375514
MLS Listing,,Condo/Co-op,1155 Pine St #8,San Francisco,CA,94109,375000,0,1.0,SF District 8,370,5170,1928,8,1014,560,Active,August-2-2025 02:00 PM,August-2-2025 04:00 PM,https://www.redfin.com/CA/San-Francisco/1155-Pine-St-94109/unit-8/home/554428,San Francisco MLS,425058443,N,Y,37.79009,-122.4148767
MLS Listing,,Other,4487-4489 Mission St,San Francisco,CA,94112,1198000,3,3.0,SF District 10,2900,2086,1906,9,413,,Active,August-2-2025 01:00 PM,August-2-2025 04:00 PM,https://www.redfin.com/CA/San-Francisco/4489-Mission-St-94112/home/773382,San Francisco MLS,425059811,N,Y,37.726337,-122.433213
MLS Listing,,Single Family Residential,47 Auburn St Unit A,San Francisco,CA,94133,568000,2,1.0,SF District 8,688,1894,1914,9,826,525,Active,,,https://www.redfin.com/CA/San-Francisco/47-Auburn-St-94133/unit-A/home/196519950,San Francisco MLS,425059752,N,Y,37.7959693,-122.4125876
MLS Listing,,Single Family Residential,1122 Gilman Ave,San Francisco,CA,94124,850000,4,2.0,San Francisco,1615,2500,1936,9,526,,Active,,,https://www.redfin.com/CA/San-Francisco/1122-Gilman-Ave-94124/home/1502929,MLSListings,ML82010099,N,Y,37.7197147,-122.3903757
MLS Listing,,Single Family Residential,45 Auburn St Unit A,San Francisco,CA,94133,568000,2,1.0,SF District 8,688,1894,1914,9,826,453,Active,August-3-2025 02:00 AM,August-3-2025 04:00 PM,https://www.redfin.com/CA/San-Francisco/45-Auburn-St-94133/unit-A/home/196540886,San Francisco MLS,425052199,N,Y,37.7959317,-122.4125926
MLS Listing,,Single Family Residential,1495 21st Ave,San Francisco,CA,94122,1295000,4,2.5,SF District 2,2225,2470,1925,9,582,,Active,August-4-2025 05:30 PM,August-4-2025 07:00 PM,https://www.redfin.com/CA/San-Francisco/1495-21st-Ave-94122/home/1385786,San Francisco MLS,425059558,N,Y,37.7598776,-122.4793294
MLS Listing,,Condo/Co-op,101 Lombard St Unit 109E,San Francisco,CA,94111,840000,1,1.5,WATERFRONT,1041,,1983,9,807,1388,Active,,,https://www.redfin.com/CA/San-Francisco/101-Lombard-St-94111/unit-109E/home/1887303,"bridgeMLS, Bay East AOR, or Contra Costa AOR",41105684,N,Y,37.8037119,-122.4045338
MLS Listing,,Condo/Co-op,301 Mission St Unit 34F,San Francisco,CA,94105,1345000,2,2.0,SF District 9,1601,50668,2009,9,840,3401,Active,,,https://www.redfin.com/CA/San-Francisco/301-Mission-St-94105/unit-34F/home/40138814,San Francisco MLS,425059471,N,Y,37.7903824,-122.3961531
MLS Listing,,Single Family Residential,333 Elliot St,San Francisco,CA,94134,825000,2,1.0,SAN FRANCISCO,1000,1875,1950,9,825,,Active,August-3-2025 02:00 PM,August-3-2025 04:30 PM,https://www.redfin.com/CA/San-Francisco/333-Elliot-St-94134/home/785961,MLSListings,ML82015485,N,Y,37.7139112,-122.4113562
MLS Listing,,Single Family Residential,884 Ingerson Ave,San Francisco,CA,94124,940000,5,3.0,Bayview Heights,1789,2495,1964,9,525,,Active,August-2-2025 01:00 PM,August-2-2025 04:00 PM,https://www.redfin.com/CA/San-Francisco/884-Ingerson-Ave-94124/home/745566,"bridgeMLS, Bay East AOR, or Contra Costa AOR",41100942,N,Y,37.7180046,-122.3906892
MLS Listing,,Condo/Co-op,888 7th St #134,San Francisco,CA,94107,467608,1,1.0,SF District 9,535,95280,2007,9,874,537,Active,August-2-2025 01:00 PM,August-2-2025 03:00 PM,https://www.redfin.com/CA/San-Francisco/888-7th-St-94107/unit-134/home/22894648,San Francisco MLS,425059300,N,Y,37.770553,-122.4004052
MLS Listing,,Condo/Co-op,1201 Sutter St #408,San Francisco,CA,94109,1099000,2,2.0,SF District 8,,8524,2022,9,,457,Active,,,https://www.redfin.com/CA/San-Francisco/1201-Sutter-St-94109/unit-408/home/183872097,San Francisco MLS,425059552,N,Y,37.7876407,-122.4202681
MLS Listing,,Single Family Residential,3284 Folsom St,San Francisco,CA,94110,1095000,3,2.0,SF District 9,1708,2000,1902,9,641,,Active,August-2-2025 01:00 PM,August-2-2025 04:00 PM,https://www.redfin.com/CA/San-Francisco/3284-Folsom-St-94110/home/1606076,San Francisco MLS,425057249,N,Y,37.7454204,-122.4136567
MLS Listing,,Condo/Co-op,600 Chestnut St #211,San Francisco,CA,94133,1200000,2,2.0,SF District 8,1158,20291,1995,10,1036,796,Active,August-3-2025 01:00 PM,August-3-2025 04:00 PM,https://www.redfin.com/CA/San-Francisco/600-Chestnut-St-94133/unit-211/home/538369,San Francisco MLS,425059546,N,Y,37.8038951,-122.4137187
MLS Listing,,Single Family Residential,162 Madrid St,San Francisco,CA,94112,1098000,4,3.0,EXCELSIOR,1725,2500,1924,10,637,,Active,,,https://www.redfin.com/CA/San-Francisco/162-Madrid-St-94112/home/774031,"bridgeMLS, Bay East AOR, or Contra Costa AOR",41105025,N,Y,37.726953,-122.4290591
MLS Listing,,Single Family Residential,1264 Fitzgerald Ave,San Francisco,CA,94124,1007000,3,1.0,SF District 10,1216,2500,1957,10,828,,Active,,,https://www.redfin.com/CA/San-Francisco/1264-Fitzgerald-Ave-94124/home/744152,San Francisco MLS,425059498,N,Y,37.72186,-122.3924372
MLS Listing,,Condo/Co-op,1100 Union St #1100,San Francisco,CA,94109,3495000,2,2.5,SF District 8,2505,8938,1929,10,1395,3976,Active,,,https://www.redfin.com/CA/San-Francisco/1100-Union-St-94109/unit-1100/home/12399721,San Francisco MLS,425059424,N,Y,37.7996387,-122.4176792
MLS Listing,,Single Family Residential,16 Dodge St,San Francisco,CA,94102,700000,1,1.5,SF District 8,1500,1120,1925,10,467,,Active,,,https://www.redfin.com/CA/San-Francisco/16-Dodge-Pl-94102/home/196517552,San Francisco MLS,425053841,N,Y,37.7820806,-122.4167468
MLS Listing,,Single Family Residential,78 Theresa St,San Francisco,CA,94112,799000,2,2.0,SF District 10,895,2495,1922,10,893,,Active,August-2-2025 02:00 PM,August-2-2025 04:00 PM,https://www.redfin.com/CA/San-Francisco/78-Theresa-St-94112/home/812587,San Francisco MLS,425059330,N,Y,37.728625,-122.4338903
MLS Listing,,Other,1192 Pacific Ave,San Francisco,CA,94133,3250000,12,2.0,SF District 8,8004,2696,1902,10,406,,Active,,,https://www.redfin.com/CA/San-Francisco/1192-Pacific-Ave-94133/home/196516365,San Francisco MLS,425059356,N,Y,37.79605,-122.414833
MLS Listing,,Condo/Co-op,88 Hoff St #101,San Francisco,CA,94110,584516,1,2.0,SF District 9,985,10702,2000,10,593,744,Active,August-3-2025 02:00 PM,August-3-2025 04:00 PM,https://www.redfin.com/CA/San-Francisco/88-Hoff-St-94110/unit-101/home/1179205,San Francisco MLS,425056602,N,Y,37.7639197,-122.4207016
MLS Listing,,Single Family Residential,234 Valley St,San Francisco,CA,94131,4495000,4,3.5,SF District 5,3800,2922,1900,11,1183,,Active,August-2-2025 10:00 AM,August-2-2025 01:00 PM,https://www.redfin.com/CA/San-Francisco/234-Valley-St-94131/home/1712942,San Francisco MLS,425059152,N,Y,37.7446879,-122.427659
MLS Listing,,Condo/Co-op,382 Green St #3,San Francisco,CA,94133,675000,1,1.0,SF District 8,462,1304,1906,12,1461,289,Active,August-2-2025 12:00 PM,August-2-2025 02:00 PM,https://www.redfin.com/CA/San-Francisco/382-Green-St-94133/unit-3/home/1537421,San Francisco MLS,425058611,N,Y,37.8000887,-122.4056292
MLS Listing,,Condo/Co-op,39 Moss St,San Francisco,CA,94103,665000,2,1.0,SF District 9,690,1875,1907,12,964,495,Active,August-2-2025 02:00 PM,August-2-2025 04:00 PM,https://www.redfin.com/CA/San-Francisco/39-Moss-St-94103/home/28939260,San Francisco MLS,425058919,N,Y,37.7779577,-122.4081881
MLS Listing,,Condo/Co-op,85 Duboce Ave #301,San Francisco,CA,94103,629000,1,1.0,SF District 9,667,6327,1980,12,943,620,Active,August-2-2025 01:00 PM,August-2-2025 03:00 PM,https://www.redfin.com/CA/San-Francisco/85-Duboce-Ave-94103/unit-301/home/983465,San Francisco MLS,425057647,N,Y,37.7698049,-122.4218614
MLS Listing,,Condo/Co-op,38 Jennings Ct,San Francisco,CA,94124,799000,3,2.0,SF District 10,1400,2589,1992,13,571,,Active,,,https://www.redfin.com/CA/San-Francisco/38-Jennings-Ct-94124/home/1885286,San Francisco MLS,425058730,N,Y,37.716911,-122.397591
MLS Listing,,Single Family Residential,112 Peabody St,San Francisco,CA,94134,1300000,4,1.5,SAN FRANCISCO,1904,3646,1924,13,683,,Active,August-3-2025 02:30 PM,August-3-2025 04:30 PM,https://www.redfin.com/CA/San-Francisco/112-Peabody-St-94134/home/789719,MLSListings,ML82015225,N,Y,37.7109538,-122.4073782
MLS Listing,,Single Family Residential,3639 Mission St,San Francisco,CA,94110,1075000,3,2.0,SF District 9,1356,2692,1910,13,793,,Active,,,https://www.redfin.com/CA/San-Francisco/3639-Mission-St-94110/home/1167305,San Francisco MLS,425058932,N,Y,37.7382041,-122.4237752
MLS Listing,,Multi-Family (5+ Unit),1110 Steiner St,San Francisco,CA,94115,1288000,7,4.0,SF District 6,3000,2217,1963,13,429,,Active,,,https://www.redfin.com/CA/San-Francisco/1110-Steiner-St-94115/home/575030,San Francisco MLS,425057887,N,Y,37.7797775,-122.4335331
MLS Listing,,Other,405 2nd Ave,San Francisco,CA,94118,1800000,8,2.0,SF District 1,6168,3250,1921,13,292,,Active,,,https://www.redfin.com/CA/San-Francisco/405-2nd-Ave-94118/home/1580344,San Francisco MLS,425058962,N,Y,37.7809031,-122.4601502
MLS Listing,,Condo/Co-op,815 Tennessee St #306,San Francisco,CA,94107,859000,1,1.0,SF District 9,761,19972,2018,13,1129,936,Active,August-3-2025 01:00 PM,August-3-2025 03:00 PM,https://www.redfin.com/CA/San-Francisco/815-Tennessee-St-94107/unit-306/home/196500672,San Francisco MLS,425052214,N,Y,37.7614764,-122.3892934
MLS Listing,,Single Family Residential,1767 21st Ave,San Francisco,CA,94122,1195000,3,2.0,SF District 2,1472,2996,1939,13,812,,Active,,,https://www.redfin.com/CA/San-Francisco/1767-21st-Ave-94122/home/640056,San Francisco MLS,425058829,N,Y,37.7547667,-122.4789175
MLS Listing,,Single Family Residential,546 Ellsworth St,San Francisco,CA,94110,999000,3,1.0,SF District 9,2257,2100,1904,13,443,,Active,,,https://www.redfin.com/CA/San-Francisco/546-Ellsworth-St-94110/home/1631276,San Francisco MLS,425055172,N,Y,37.7365284,-122.4149497
MLS Listing,,Single Family Residential,4258 26th St,San Francisco,CA,94131,5495000,5,4.5,SF District 5,3854,2964,1890,13,1426,,Active,,,https://www.redfin.com/CA/San-Francisco/4258-26th-St-94131/home/2025296,San Francisco MLS,425058587,N,Y,37.7482208,-122.4351275
MLS Listing,,Condo/Co-op,915 North Point St Unit L3,San Francisco,CA,94109,799000,1,1.0,SF District 8,,14697,,13,,603,Active,August-2-2025 01:00 PM,August-2-2025 03:00 PM,https://www.redfin.com/CA/San-Francisco/915-N-Point-St-94109/unit-L3/home/196499112,San Francisco MLS,425058915,N,Y,37.805147,-122.422351
MLS Listing,,Condo/Co-op,401 Harrison St Unit 44A,San Francisco,CA,94105,3100000,2,2.0,SF District 9,1648,56023,2014,13,1881,1775,Active,,,https://www.redfin.com/CA/San-Francisco/401-Harrison-St-94105/unit-44A/home/144064335,San Francisco MLS,425058903,N,Y,37.7863747,-122.3919931
MLS Listing,,Single Family Residential,160 Upland Dr,San Francisco,CA,94127,2495000,5,4.0,SF District 4,2594,3785,1927,13,962,,Active,August-2-2025 02:00 PM,August-2-2025 05:00 PM,https://www.redfin.com/CA/San-Francisco/160-Upland-Dr-94127/home/699419,San Francisco MLS,425057557,N,Y,37.728998,-122.4627815
MLS Listing,,Condo/Co-op,631 Ofarrell St #2002,San Francisco,CA,94109,448000,1,1.0,SF District 8,1000,18438,1930,13,448,1917,Active,August-3-2025 02:00 PM,August-3-2025 04:00 PM,https://www.redfin.com/CA/San-Francisco/631-Ofarrell-St-94109/unit-2002/home/1418632,San Francisco MLS,425024973,N,Y,37.785248,-122.4151803
MLS Listing,,Condo/Co-op,181 Fremont St Unit 59A,San Francisco,CA,94105,3495000,2,2.5,SF District 9,1894,,2018,13,1845,4177,Active,,,https://www.redfin.com/CA/San-Francisco/181-Fremont-St-94105/unit-59A/home/191433241,San Francisco MLS,425058122,N,Y,37.7896113,-122.3954593
MLS Listing,,Condo/Co-op,1354 Utah St,San Francisco,CA,94110,1248000,2,2.5,SF District 9,1256,2506,2005,13,994,400,Active,,,https://www.redfin.com/CA/San-Francisco/1354-Utah-St-94110/home/1585879,San Francisco MLS,425058801,N,Y,37.7523041,-122.4055212
MLS Listing,,Other,233 14th St,San Francisco,CA,94103,1995000,8,1.0,SF District 9,4974,2317,1907,13,401,,Active,,,https://www.redfin.com/CA/San-Francisco/233-14th-St-94103/home/2013911,San Francisco MLS,425058803,N,Y,37.7681849,-122.4186541
MLS Listing,,Single Family Residential,2232 Bush St,San Francisco,CA,94115,5200000,3,3.5,SF District 6,6374,3188,1919,13,816,,Active,August-3-2025 01:00 PM,August-3-2025 03:00 PM,https://www.redfin.com/CA/San-Francisco/2232-Bush-St-94115/home/174972855,San Francisco MLS,425058147,N,Y,37.7872091,-122.4341518
MLS Listing,,Multi-Family (5+ Unit),388 5th St,San Francisco,CA,94107,3500000,30,,SF District 9,9810,4464,1909,13,357,,Active,,,https://www.redfin.com/CA/San-Francisco/388-5th-St-94107/home/1166198,San Francisco MLS,425058792,N,Y,37.7790508,-122.4022601
MLS Listing,,Condo/Co-op,2250 24th St #233,San Francisco,CA,94107,359000,0,1.0,SF District 9,456,80224,1989,13,787,803,Active,,,https://www.redfin.com/CA/San-Francisco/2250-24th-St-94107/unit-233/home/1993570,San Francisco MLS,425058330,N,Y,37.7538812,-122.4022601
MLS Listing,,Condo/Co-op,1 Hawthorne Unit 14C,San Francisco,CA,94105,1200000,2,2.0,DOWNTOWN,1313,12409,2010,13,914,1574,Active,,,https://www.redfin.com/CA/San-Francisco/1-Hawthorne-St-94105/unit-14C/home/40168392,"bridgeMLS, Bay East AOR, or Contra Costa AOR",41105255,N,Y,37.7857425,-122.3988969
MLS Listing,,Condo/Co-op,128 Morris St #15,San Francisco,CA,94107,599000,1,1.5,SF District 9,748,7501,2001,13,801,766,Active,,,https://www.redfin.com/CA/San-Francisco/128-Morris-St-94107/unit-15/home/856297,San Francisco MLS,425055724,N,Y,37.7760878,-122.4017187
MLS Listing,,Single Family Residential,21 Hollywood Ct,San Francisco,CA,94112,898000,2,1.5,SF District 10,1513,2000,1926,14,594,,Active,August-3-2025 01:00 PM,August-3-2025 03:00 PM,https://www.redfin.com/CA/San-Francisco/21-Hollywood-Ct-94112/home/1017115,San Francisco MLS,425058099,N,Y,37.7146845,-122.440988
MLS Listing,,Condo/Co-op,35 Dolores St #204,San Francisco,CA,94103,799000,1,1.0,SF District 5,749,19819,2015,14,1067,693,Active,August-3-2025 02:00 PM,August-3-2025 04:00 PM,https://www.redfin.com/CA/San-Francisco/35-Dolores-St-94103/unit-204/home/103687969,San Francisco MLS,425057475,N,Y,37.7684964,-122.4264188
MLS Listing,,Single Family Residential,1234 Francisco St #1,San Francisco,CA,94123,1095000,2,2.0,SF District 7,,2064,1924,14,,609,Active,August-3-2025 02:00 PM,August-3-2025 04:00 PM,https://www.redfin.com/CA/San-Francisco/1234-Francisco-St-94123/unit-1/home/195652318,San Francisco MLS,425058452,N,Y,37.8033561,-122.4256703
MLS Listing,,Condo/Co-op,617 Broderick St Unit B,San Francisco,CA,94117,2400000,4,4.0,SF District 6,2805,2500,1904,14,856,210,Active,August-3-2025 02:00 PM,August-3-2025 04:00 PM,https://www.redfin.com/CA/San-Francisco/617-Broderick-St-94117/unit-B/home/1999608,San Francisco MLS,425052022,N,Y,37.7759379,-122.439995
MLS Listing,,Condo/Co-op,1523 Franklin St #801,San Francisco,CA,94109,3698000,3,2.0,SF District 6,1911,4157,,14,1935,1734,Active,August-2-2025 02:00 PM,August-2-2025 04:00 PM,https://www.redfin.com/CA/San-Francisco/1523-Franklin-St-94109/unit-801/home/177931633,San Francisco MLS,425053785,N,Y,37.7886133,-122.4239413
MLS Listing,,Condo/Co-op,2990 Jackson St #4,San Francisco,CA,94115,1275000,1,1.0,SF District 7,,5000,1924,14,,600,Active,,,https://www.redfin.com/CA/San-Francisco/2990-Jackson-St-94115/unit-4/home/1154068,San Francisco MLS,425058262,N,Y,37.7914098,-122.4442023
MLS Listing,,Condo/Co-op,824 Hyde St,San Francisco,CA,94109,7745000,19,,SF District 8,12585,2813,2020,14,615,,Active,,,https://www.redfin.com/CA/San-Francisco/824-Hyde-St-94109/home/1919780,San Francisco MLS,425058382,N,Y,37.7885884,-122.4166169
MLS Listing,,Single Family Residential,19 Farallones St,San Francisco,CA,94112,699000,2,1.0,SF District 3,800,2500,1907,14,874,,Active,August-1-2025 03:30 PM,August-1-2025 05:00 PM,https://www.redfin.com/CA/San-Francisco/19-Farallones-St-94112/home/828851,San Francisco MLS,425058343,N,Y,37.7139499,-122.4530854
MLS Listing,,Single Family Residential,39 Miguel St,San Francisco,CA,94131,3995000,4,4.0,SF District 5,5017,2722,1958,14,796,,Active,August-3-2025 02:00 PM,August-3-2025 04:00 PM,https://www.redfin.com/CA/San-Francisco/39-Miguel-St-94131/home/1363476,San Francisco MLS,425034196,N,Y,37.7392681,-122.4298847
MLS Listing,,Condo/Co-op,2125 Bryant St #403,San Francisco,CA,94110,359466,2,1.0,SF District 9,1109,47098,2009,14,324,756,Active,August-2-2025 12:00 PM,August-2-2025 02:00 PM,https://www.redfin.com/CA/San-Francisco/2125-Bryant-St-94110/unit-403/home/40138317,San Francisco MLS,425058263,N,Y,37.7596538,-122.4096214
MLS Listing,,Condo/Co-op,2152 15th St,San Francisco,CA,94114,1575000,2,2.0,SF District 5,1792,3450,1900,14,879,513,Active,August-3-2025 01:00 PM,August-3-2025 04:00 PM,https://www.redfin.com/CA/San-Francisco/2152-15th-St-94114/home/144911400,San Francisco MLS,425058000,N,Y,37.766057,-122.432235
MLS Listing,,Multi-Family (2-4 Unit),874 27th Ave,San Francisco,CA,94121,2549000,4,2.0,SF District 1,3290,3497,1929,14,775,,Active,August-2-2025 02:00 PM,August-2-2025 04:30 PM,https://www.redfin.com/CA/San-Francisco/874-27th-Ave-94121/home/621682,San Francisco MLS,425055519,N,Y,37.772978,-122.486004
MLS Listing,,Condo/Co-op,401 Harrison St Unit 25A,San Francisco,CA,94105,950000,1,1.0,SAN FRANCISCO,840,56192,2014,15,1131,1699,Active,,,https://www.redfin.com/CA/San-Francisco/401-Harrison-St-94105/unit-25A/home/144064234,MLSListings,ML82014931,N,Y,37.7863747,-122.3919931
MLS Listing,,Condo/Co-op,1 Crescent Way #1402,San Francisco,CA,94134,699000,2,2.0,BAYVIEW,1063,,2001,15,658,733,Active,,,https://www.redfin.com/CA/San-Francisco/1-Crescent-Way-94134/unit-1402/home/919662,"bridgeMLS, Bay East AOR, or Contra Costa AOR",41105066,N,Y,37.7108272,-122.3902205
MLS Listing,,Condo/Co-op,1001 17th St #201,San Francisco,CA,94107,659000,1,1.0,SF District 9,591,9426,2016,15,1115,494,Active,August-3-2025 11:15 AM,August-3-2025 01:15 PM,https://www.redfin.com/CA/San-Francisco/1001-17th-St-94107/unit-201/home/102252385,San Francisco MLS,425053534,N,Y,37.7650712,-122.3941426
MLS Listing,,Multi-Family (2-4 Unit),52-54 Eastwood Dr,San Francisco,CA,94112,2388000,6,6.0,SAN FRANCISCO,2704,3628,1917,15,883,14,Active,August-2-2025 02:00 PM,August-2-2025 04:00 PM,https://www.redfin.com/CA/San-Francisco/54-Eastwood-Dr-94112/home/114081986,MLSListings,ML82014871,N,Y,37.7265483,-122.4570518
MLS Listing,,Condo/Co-op,490 33rd Ave #201,San Francisco,CA,94121,679000,1,1.0,SF District 1,686,12000,1980,15,990,414,Active,,,https://www.redfin.com/CA/San-Francisco/490-33rd-Ave-94121/unit-201/home/2018534,San Francisco MLS,425058135,N,Y,37.7800326,-122.4931172
MLS Listing,,Single Family Residential,786 Colby St,San Francisco,CA,94134,1200000,4,2.0,PORTOLA DISTRICT,1064,1750,1955,15,1128,,Active,August-3-2025 11:00 AM,August-3-2025 02:00 PM,https://www.redfin.com/CA/San-Francisco/786-Colby-St-94134/home/1922973,"bridgeMLS, Bay East AOR, or Contra Costa AOR",41104928,N,Y,37.7206503,-122.4107681
MLS Listing,,Condo/Co-op,1032 Capp St,San Francisco,CA,94110,1050000,3,1.0,SF District 9,1250,4802,1921,15,840,392,Active,,,https://www.redfin.com/CA/San-Francisco/1032-Capp-St-94110/home/110052467,San Francisco MLS,425054880,N,Y,37.750228,-122.4173874
MLS Listing,,Condo/Co-op,137 Nautilus Ct #82,San Francisco,CA,94124,770000,3,3.0,Hunters Point,1360,,1981,15,566,726,Active,,,https://www.redfin.com/CA/San-Francisco/137-Nautilus-Ct-94124/unit-82/home/739878,"bridgeMLS, Bay East AOR, or Contra Costa AOR",41104926,N,Y,37.7278234,-122.3732379
MLS Listing,,Condo/Co-op,300 3rd St #311,San Francisco,CA,94107,848000,1,1.0,SF District 9,1000,48941,1990,15,848,883,Active,August-2-2025 02:00 PM,August-2-2025 04:00 PM,https://www.redfin.com/CA/San-Francisco/300-3rd-St-94107/unit-311/home/945721,San Francisco MLS,425015668,N,Y,37.7835932,-122.3989159
MLS Listing,,Multi-Family (2-4 Unit),1646 19th Ave,San Francisco,CA,94122,1498000,4,4.0,SF District 2,3400,2696,1957,15,441,,Active,,,https://www.redfin.com/CA/San-Francisco/1646-19th-Ave-94122/home/1799721,San Francisco MLS,425057788,N,Y,37.7570945,-122.4763337
MLS Listing,,Single Family Residential,2 Byron Ct,San Francisco,CA,94112,2650000,4,3.5,SF District 10,2605,2678,2020,15,1017,,Active,,,https://www.redfin.com/CA/San-Francisco/2-Byron-Ct-94112/home/110065537,San Francisco MLS,425057875,N,Y,37.7098915,-122.4435993
MLS Listing,,Multi-Family (5+ Unit),1217-1219 Kearny St,San Francisco,CA,94133,2999000,4,4.0,SF District 8,3240,1200,1910,15,926,,Active,August-3-2025 01:00 PM,August-3-2025 04:00 PM,https://www.redfin.com/CA/San-Francisco/1219-Kearny-St-94133/home/542701,San Francisco MLS,425048635,N,Y,37.7992671,-122.4058002
MLS Listing,,Single Family Residential,839 Cole St #839,San Francisco,CA,94117,1395000,2,2.0,SF District 5,1240,3467,1900,16,1125,727,Active,August-2-2025 12:00 PM,August-2-2025 02:00 PM,https://www.redfin.com/CA/San-Francisco/839-Cole-St-94117/unit-839/home/196427767,San Francisco MLS,425056695,N,Y,37.7661933,-122.4502259
MLS Listing,,Single Family Residential,2926 25th St,San Francisco,CA,94110,1024000,3,2.0,SF District 9,1350,5170,1904,16,759,571,Active,August-2-2025 11:30 AM,August-2-2025 01:30 PM,https://www.redfin.com/CA/San-Francisco/2926-25th-St-94110/home/984095,San Francisco MLS,425057842,N,Y,37.751456,-122.408552
MLS Listing,,Single Family Residential,2928 25th St,San Francisco,CA,94110,949000,3,2.0,SF District 9,1250,5170,1904,16,759,571,Active,August-2-2025 11:30 AM,August-2-2025 01:30 PM,https://www.redfin.com/CA/San-Francisco/2928-25th-St-94110/home/196427491,San Francisco MLS,425057836,N,Y,37.7513485,-122.4085349
MLS Listing,,Townhouse,19 Progress St,San Francisco,CA,94124,899000,5,2.0,BAY VIEW,1583,2142,1991,16,568,,Active,,,https://www.redfin.com/CA/San-Francisco/19-Progress-St-94124/home/2017021,"bridgeMLS, Bay East AOR, or Contra Costa AOR",41104866,N,Y,37.7333993,-122.3838718
MLS Listing,,Condo/Co-op,318 Main St Unit 5I,San Francisco,CA,94105,1098000,1,1.5,SAN FRANCISCO,1000,,2015,16,1098,1330,Active,August-3-2025 02:00 PM,August-3-2025 05:00 PM,https://www.redfin.com/CA/San-Francisco/318-Main-St-94105/unit-5I/home/109686953,MLSListings,ML82008219,N,Y,37.7889813,-122.3918869
MLS Listing,,Condo/Co-op,200 Brannan St #208,San Francisco,CA,94107,1288800,2,2.0,SAN FRANCISCO,1520,,2004,16,848,1087,Active,August-2-2025 02:00 PM,August-2-2025 04:00 PM,https://www.redfin.com/CA/San-Francisco/200-Brannan-St-94107/unit-208/home/1640950,MLSListings,ML82008222,N,Y,37.7836726,-122.3902581
MLS Listing,,Condo/Co-op,1450 Franklin St #801,San Francisco,CA,94109,1585000,2,2.0,SF District 8,1266,12318,2017,16,1252,1167,Active,August-3-2025 02:00 PM,August-3-2025 04:00 PM,https://www.redfin.com/CA/San-Francisco/1450-Franklin-St-94109/unit-801/home/167259452,San Francisco MLS,425032745,N,Y,37.788022,-122.4234364
MLS Listing,,Condo/Co-op,83 Mcallister St #402,San Francisco,CA,94102,299000,0,1.0,CIVIC CENTER,256,7498,2007,16,1168,444,Active,,,https://www.redfin.com/CA/San-Francisco/83-McAllister-St-94102/unit-402/home/21967266,"bridgeMLS, Bay East AOR, or Contra Costa AOR",41104829,N,Y,37.7808814,-122.4132786
MLS Listing,,Multi-Family (2-4 Unit),1315-1317 Kansas St,San Francisco,CA,94107,1199000,3,2.0,SF District 9,2520,1875,1924,16,476,,Active,August-3-2025 02:00 PM,August-3-2025 04:00 PM,https://www.redfin.com/CA/San-Francisco/1315-1317-Kansas-St-94107/home/194789191,San Francisco MLS,425055296,N,Y,37.752991,-122.402143
MLS Listing,,Single Family Residential,931 Athens St,San Francisco,CA,94112,1350000,4,3.0,SF District 10,1982,2495,1925,16,681,,Active,,,https://www.redfin.com/CA/San-Francisco/931-Athens-St-94112/home/1114431,San Francisco MLS,425056300,N,Y,37.7142525,-122.4337153
MLS Listing,,Multi-Family (2-4 Unit),2033-2035 Clement St,San Francisco,CA,94121,1695000,6,4.5,San Francisco,2226,2500,1916,16,761,,Active,,,https://www.redfin.com/CA/San-Francisco/2033-2035-Clement-St-94121/home/196419167,"bridgeMLS, Bay East AOR, or Contra Costa AOR",41104808,N,Y,37.781939,-122.481195
MLS Listing,,Single Family Residential,2033 Clement St,San Francisco,CA,94121,1695000,5,3.5,CENTRAL RICHMOND,2226,2500,1916,16,761,,Active,,,https://www.redfin.com/CA/San-Francisco/2033-Clement-St-94121/home/1953884,"bridgeMLS, Bay East AOR, or Contra Costa AOR",41104807,N,Y,37.781939,-122.481195
MLS Listing,,Multi-Family (5+ Unit),1814-1818 Fell St,San Francisco,CA,94117,2100000,7,,SF District 6,4500,2500,1908,16,467,,Active,,,https://www.redfin.com/CA/San-Francisco/1814-1818-Fell-St-94117/home/194788518,San Francisco MLS,425057621,N,Y,37.772988,-122.4479
MLS Listing,,Single Family Residential,14 Youngs Ct,San Francisco,CA,94124,999000,3,2.0,SAN FRANCISCO,2004,1863,1986,16,499,200,Active,,,https://www.redfin.com/CA/San-Francisco/14-Youngs-Ct-94124/home/936533,MLSListings,ML82014649,N,Y,37.7361724,-122.3860722
MLS Listing,,Multi-Family (2-4 Unit),168-170 Bernard St,San Francisco,CA,94109,1999888,7,3.0,SAN FRANCISCO,2724,1467,1906,16,734,,Active,August-3-2025 02:00 PM,August-3-2025 04:00 PM,https://www.redfin.com/CA/San-Francisco/170-Bernard-St-94109/home/195616215,MLSListings,ML82014645,N,Y,37.7962939,-122.4162577
MLS Listing,,Condo/Co-op,1 Hawthorne St Unit 12F,San Francisco,CA,94105,1450000,2,2.0,SF District 9,1381,12410,,16,1050,1574,Active,,,https://www.redfin.com/CA/San-Francisco/1-Hawthorne-St-94105/unit-12F/home/40138696,San Francisco MLS,425057344,N,Y,37.7857425,-122.3988969
MLS Listing,,Vacant Land,1728 Larkin St,San Francisco,CA,94109,2800000,,,SF District 8,,3499,,17,,,Active,,,https://www.redfin.com/CA/San-Francisco/1728-Larkin-St-94109/home/173330136,San Francisco MLS,425057589,N,Y,37.793928,-122.419307
MLS Listing,,Townhouse,161 Cleo Rand Ln,San Francisco,CA,94124,760000,2,1.5,SAN FRANCISCO,1150,111214,1989,17,661,543,Active,August-2-2025 01:00 PM,August-2-2025 03:00 PM,https://www.redfin.com/CA/San-Francisco/161-Cleo-Rand-Ln-94124/home/2024872,MLSListings,ML81997303,N,Y,37.7291781,-122.3716916
MLS Listing,,Multi-Family (2-4 Unit),3511 23rd St,San Francisco,CA,94110,2675000,5,1.0,SF District 5,2880,2125,1900,17,929,,Active,,,https://www.redfin.com/CA/San-Francisco/3511-23rd-St-94110/home/1004335,San Francisco MLS,425041045,N,Y,37.7534397,-122.4218783
MLS Listing,,Multi-Family (5+ Unit),3820 Divisadero St,San Francisco,CA,94123,3250000,6,,SF District 7,5955,2905,1927,17,546,,Active,,,https://www.redfin.com/CA/San-Francisco/3820-Divisadero-St-94123/home/580453,San Francisco MLS,425056095,N,Y,37.8050419,-122.4435984
MLS Listing,,Condo/Co-op,1288 Howard St #514,San Francisco,CA,94103,1298000,2,2.0,SF District 9,1102,37143,2022,17,1178,496,Active,,,https://www.redfin.com/CA/San-Francisco/1288-Howard-St-94103/unit-514/home/180101879,San Francisco MLS,425057446,N,Y,37.775436,-122.4130273
MLS Listing,,Condo/Co-op,1070 Green St #801,San Francisco,CA,94133,3395000,2,2.5,SF District 8,1616,8721,1961,17,2101,2627,Active,,,https://www.redfin.com/CA/San-Francisco/1070-Green-St-94133/unit-801/home/1892827,San Francisco MLS,425056599,N,Y,37.7987784,-122.4168978
MLS Listing,,Multi-Family (5+ Unit),1073 Bush St,San Francisco,CA,94109,2489000,9,,SF District 8,6542,5088,1911,17,380,,Active,,,https://www.redfin.com/CA/San-Francisco/1073-Bush-St-94109/home/1235396,San Francisco MLS,425057402,N,Y,37.7892037,-122.414837
MLS Listing,,Condo/Co-op,915 North Point St Unit G2,San Francisco,CA,94109,1399000,2,2.0,SF District 8,,14697,,17,,809,Active,August-2-2025 01:00 PM,August-2-2025 03:00 PM,https://www.redfin.com/CA/San-Francisco/915-N-Point-St-94109/unit-G2/home/196400141,San Francisco MLS,425057395,N,Y,37.805147,-122.422351
MLS Listing,,Single Family Residential,363 Panorama Dr,San Francisco,CA,94131,1250000,2,1.0,SF District 4,1062,3630,1956,17,1177,2,Active,,,https://www.redfin.com/CA/San-Francisco/363-Panorama-Dr-94131/home/1042937,San Francisco MLS,425056067,N,Y,37.7507621,-122.4523378
MLS Listing,,Single Family Residential,131 Vienna St,San Francisco,CA,94112,999000,5,3.0,SF District 10,2502,2500,1987,17,399,,Active,,,https://www.redfin.com/CA/San-Francisco/131-Vienna-St-94112/home/1680120,San Francisco MLS,425056977,N,Y,37.7261004,-122.4259236
MLS Listing,,Condo/Co-op,3390 16th St,San Francisco,CA,94114,1098000,3,2.0,SF District 5,,1738,1906,18,,290,Active,,,https://www.redfin.com/CA/San-Francisco/3390-16th-St-94114/home/868657,San Francisco MLS,425054116,N,Y,37.764729,-122.428413
MLS Listing,,Condo/Co-op,2790 19th Ave #21,San Francisco,CA,94132,995000,3,2.0,SF District 4,1460,174213,1979,19,682,1318,Active,,,https://www.redfin.com/CA/San-Francisco/2790-19th-Ave-94132/unit-21/home/1453860,San Francisco MLS,425057272,N,Y,37.736078,-122.474074
MLS Listing,,Condo/Co-op,1258 York St,San Francisco,CA,94110,1998000,3,2.5,SF District 9,2030,2578,,19,984,1,Active,,,https://www.redfin.com/CA/San-Francisco/1258-York-St-94110/home/110051907,San Francisco MLS,425054412,N,Y,37.7519412,-122.4083474
MLS Listing,,Condo/Co-op,260 King St #261,San Francisco,CA,94107,699000,1,1.0,SF District 9,965,213232,2004,19,724,1060,Active,,,https://www.redfin.com/CA/San-Francisco/260-King-St-94107/unit-261/home/8191036,San Francisco MLS,425057202,N,Y,37.7776266,-122.3936716
MLS Listing,,Condo/Co-op,450 Carl St,San Francisco,CA,94117,1000000,2,2.0,SF District 5,952,112621,1990,19,1050,514,Active,August-3-2025 02:00 PM,August-3-2025 04:00 PM,https://www.redfin.com/CA/San-Francisco/450-Carl-St-94117/home/601897,San Francisco MLS,425056942,N,Y,37.7650433,-122.4568583
MLS Listing,,Multi-Family (2-4 Unit),2654-2656 Bush St,San Francisco,CA,94115,2295000,5,3.0,LOWER PAC HTS,2502,2750,2502,20,917,,Active,,,https://www.redfin.com/CA/San-Francisco/2654-2656-Bush-St-94115/home/196371664,"bridgeMLS, Bay East AOR, or Contra Costa AOR",41104004,N,Y,37.786353,-122.440956
MLS Listing,,Single Family Residential,714 London St,San Francisco,CA,94112,1395000,3,3.5,SF District 10,1819,2495,1949,20,767,,Active,August-1-2025 05:00 PM,August-1-2025 07:00 PM,https://www.redfin.com/CA/San-Francisco/714-London-St-94112/home/1606714,San Francisco MLS,425048740,N,Y,37.717926,-122.4391728
MLS Listing,,Condo/Co-op,170 King St #1104,San Francisco,CA,94107,585000,0,1.0,SF District 9,448,42969,2007,20,1306,789,Active,,,https://www.redfin.com/CA/San-Francisco/170-King-St-94107/unit-1104/home/17304637,San Francisco MLS,425057004,N,Y,37.7789887,-122.3914682
MLS Listing,,Single Family Residential,170 Eastwood Dr,San Francisco,CA,94112,2288000,5,3.5,SF District 4,2604,4277,1920,20,879,14,Active,August-2-2025 02:00 PM,August-2-2025 04:00 PM,https://www.redfin.com/CA/San-Francisco/170-Eastwood-Dr-94112/home/1997043,San Francisco MLS,425054593,N,Y,37.7291298,-122.4571682
MLS Listing,,Condo/Co-op,1015 Ashbury St #4,San Francisco,CA,94117,1208000,1,1.0,SF District 5,974,4988,1913,20,1240,300,Active,,,https://www.redfin.com/CA/San-Francisco/1015-Ashbury-St-94117/unit-4/home/12277471,San Francisco MLS,424073753,N,Y,37.7642953,-122.4463036
MLS Listing,,Condo/Co-op,8200 Oceanview Ter #321,San Francisco,CA,94132,798000,3,2.0,SAN FRANCISCO,1186,,2002,20,673,1053,Active,,,https://www.redfin.com/CA/San-Francisco/8200-Oceanview-Ter-94132/unit-321/home/872219,MLSListings,ML82014332,N,Y,37.7102167,-122.4669844
MLS Listing,,Condo/Co-op,1015 Ashbury St #3,San Francisco,CA,94117,588000,1,1.0,SF District 5,824,4988,1913,20,714,255,Active,,,https://www.redfin.com/CA/San-Francisco/1015-Ashbury-St-94117/unit-3/home/12277470,San Francisco MLS,424077097,N,Y,37.7642953,-122.4463036
MLS Listing,,Single Family Residential,275 Teddy Ave,San Francisco,CA,94134,849000,3,2.0,SAN FRANCISCO,1168,2500,1900,20,727,,Active,August-2-2025 02:00 PM,August-2-2025 04:00 PM,https://www.redfin.com/CA/San-Francisco/275-Teddy-Ave-94134/home/1929189,MLSListings,ML82014311,N,Y,37.7148497,-122.4081651
MLS Listing,,Condo/Co-op,301 Main St Unit 34B,San Francisco,CA,94105,3695000,3,2.5,SF District 9,1507,76210,2008,20,2452,1377,Active,August-3-2025 11:00 AM,August-3-2025 01:00 PM,https://www.redfin.com/CA/San-Francisco/301-Main-St-94105/unit-34B/home/21966914,San Francisco MLS,425056679,N,Y,37.7895974,-122.3911965
MLS Listing,,Single Family Residential,224 Twin Peaks Blvd,San Francisco,CA,94114,2750000,3,2.5,SF District 5,1542,2583,1916,20,1783,,Active,July-31-2025 04:30 PM,July-31-2025 06:00 PM,https://www.redfin.com/CA/San-Francisco/224-Twin-Peaks-Blvd-94114/home/673033,San Francisco MLS,425031138,N,Y,37.7585821,-122.4487806
MLS Listing,,Single Family Residential,980 Holloway Ave,San Francisco,CA,94132,1350000,2,1.0,SF District 4,1590,4011,1922,20,849,,Active,,,https://www.redfin.com/CA/San-Francisco/980-Holloway-Ave-94132/home/1123528,San Francisco MLS,425056840,N,Y,37.7218741,-122.4639261
MLS Listing,,Single Family Residential,221 Noe St #12,San Francisco,CA,94114,795000,1,1.0,SF District 5,662,5000,1908,20,1201,523,Active,,,https://www.redfin.com/CA/San-Francisco/221-Noe-St-94114/unit-12/home/21999028,San Francisco MLS,425055398,N,Y,37.7655299,-122.4328558
MLS Listing,,Single Family Residential,965 Alvarado St #5,San Francisco,CA,94114,599000,1,1.0,SF District 5,,2950,1959,20,,460,Active,August-3-2025 01:00 PM,August-3-2025 03:00 PM,https://www.redfin.com/CA/San-Francisco/965-Alvarado-St-94114/unit-5/home/170558164,San Francisco MLS,425056358,N,Y,37.7530133,-122.4418359
MLS Listing,,Single Family Residential,224 Shields St,San Francisco,CA,94132,1299000,2,4.0,SAN FRANCISCO,2032,2500,1931,20,639,,Active,,,https://www.redfin.com/CA/San-Francisco/224-Shields-St-94132/home/1346159,MLSListings,ML82014276,N,Y,37.7181023,-122.4649585
MLS Listing,,Condo/Co-op,601 Van Ness Ave #71,San Francisco,CA,94102,599000,2,2.0,SF District 8,1016,105807,1982,20,590,1475,Active,August-3-2025 01:00 PM,August-3-2025 03:00 PM,https://www.redfin.com/CA/San-Francisco/601-Van-Ness-Ave-94102/unit-71/home/1296651,San Francisco MLS,425056822,N,Y,37.7811165,-122.4213309
MLS Listing,,Multi-Family (2-4 Unit),984 Harrison St,San Francisco,CA,94107,2195000,12,5.0,SF District 9,4089,1953,1913,20,537,,Active,,,https://www.redfin.com/CA/San-Francisco/984-Harrison-St-94107/home/1361760,San Francisco MLS,425056005,N,Y,37.7777428,-122.4038577
MLS Listing,,Condo/Co-op,690 Market St #1401,San Francisco,CA,94104,1369000,2,2.0,SF District 8,1382,11357,2007,20,991,3654,Active,,,https://www.redfin.com/CA/San-Francisco/690-Market-St-94104/unit-1401/home/21967244,San Francisco MLS,425037993,N,Y,37.7882287,-122.4030647
MLS Listing,,Single Family Residential,2418 21st Ave,San Francisco,CA,94116,2295000,5,3.5,SF District 2,3122,2831,1912,20,735,,Active,August-3-2025 02:00 PM,August-3-2025 04:00 PM,https://www.redfin.com/CA/San-Francisco/2418-21st-Ave-94116/home/1023326,San Francisco MLS,425056247,N,Y,37.7426355,-122.4775985
MLS Listing,,Single Family Residential,3954 Folsom St,San Francisco,CA,94110,625000,1,1.0,SF District 9,625,1751,1900,20,1000,,Active,August-1-2025 02:00 PM,August-1-2025 02:20 PM,https://www.redfin.com/CA/San-Francisco/3954-Folsom-St-94110/home/1149821,San Francisco MLS,425056702,N,Y,37.7376184,-122.4136223
MLS Listing,,Single Family Residential,1632 Bush St,San Francisco,CA,94109,1495000,4,2.0,SF District 6,,2996,,20,,726,Active,August-2-2025 02:00 PM,August-2-2025 04:00 PM,https://www.redfin.com/CA/San-Francisco/1632-Bush-St-94109/home/194689500,San Francisco MLS,425055711,N,Y,37.7883113,-122.4242151
MLS Listing,,Other,3173-3173A 21st St,San Francisco,CA,94110,1590000,6,2.0,SF District 9,2350,2113,1900,21,677,,Active,,,https://www.redfin.com/CA/San-Francisco/3173-21st-St-94110/home/196344524,San Francisco MLS,425055394,N,Y,37.7568902,-122.418301
MLS Listing,,Single Family Residential,653 Commercial & 656 First Lane Ave,South San Francisco,CA,94080,1898000,4,2.0,Old South SF/Rocca,,4800,1944,21,,,Active,,,https://www.redfin.com/CA/South-San-Francisco/653-Commercial-656-First-Lane-AVE-94080/home/196344523,San Francisco MLS,425055866,N,Y,37.7939831,-122.4038752
MLS Listing,,Condo/Co-op,1177 California St #212,San Francisco,CA,94108,895000,1,1.0,SF District 8,1056,31663,1978,21,848,1760,Active,,,https://www.redfin.com/CA/San-Francisco/1177-California-St-94108/unit-212/home/549710,San Francisco MLS,425055356,N,Y,37.7909986,-122.4137649
MLS Listing,,Condo/Co-op,2443 Clement St #4,San Francisco,CA,94121,924999,2,1.0,SAN FRANCISCO,952,,2008,21,972,641,Active,,,https://www.redfin.com/CA/San-Francisco/2443-Clement-St-94121/unit-4/home/23424077,MLSListings,ML82013783,N,Y,37.78174,-122.48561
MLS Listing,,Multi-Family (2-4 Unit),4632 18th St,San Francisco,CA,94114,1800000,4,3.0,SF District 5,3100,2147,1915,21,581,,Active,,,https://www.redfin.com/CA/San-Francisco/4632-18th-St-94114/home/1062920,San Francisco MLS,425056603,N,Y,37.7606539,-122.4418809
MLS Listing,,Other,670 Jackson St,San Francisco,CA,94133,4100000,17,,SF District 8,9190,2350,1911,21,446,,Active,,,https://www.redfin.com/CA/San-Francisco/670-Jackson-St-94133/home/148078452,San Francisco MLS,425056723,N,Y,37.7962732,-122.4063533
MLS Listing,,Single Family Residential,517 Ortega St,San Francisco,CA,94122,2095000,4,2.5,SAN FRANCISCO,2371,3184,1965,21,884,,Active,,,https://www.redfin.com/CA/San-Francisco/517-Ortega-St-94122/home/1477558,MLSListings,ML82014209,N,Y,37.7535604,-122.4686506
MLS Listing,,Condo/Co-op,74 Lynch St,San Francisco,CA,94109,999000,2,1.0,SAN FRANCISCO,970,,1906,21,1030,225,Active,,,https://www.redfin.com/CA/San-Francisco/74-Lynch-St-94109/home/1038958,MLSListings,ML82014188,N,Y,37.7958927,-122.4179305
MLS Listing,,Single Family Residential,1983 15th Ave,San Francisco,CA,94116,3995000,5,4.5,SF District 2,3311,6246,1938,21,1207,,Active,August-2-2025 02:00 PM,August-2-2025 04:00 PM,https://www.redfin.com/CA/San-Francisco/1983-15th-Ave-94116/home/646132,San Francisco MLS,425054009,N,Y,37.7511059,-122.4722008
MLS Listing,,Single Family Residential,363 Prague St,San Francisco,CA,94112,1198000,4,2.5,SF District 10,1553,2500,1945,21,771,,Active,August-2-2025 02:00 PM,August-2-2025 04:00 PM,https://www.redfin.com/CA/San-Francisco/363-Prague-St-94112/home/1232793,San Francisco MLS,425054204,N,Y,37.7163258,-122.428968
MLS Listing,,Condo/Co-op,1 Rausch St Unit A,San Francisco,CA,94103,799000,1,2.0,SF District 9,1044,5621,1909,21,765,662,Active,August-3-2025 02:00 PM,August-3-2025 04:00 PM,https://www.redfin.com/CA/San-Francisco/1-Rausch-St-94103/unit-A/home/1518679,San Francisco MLS,425046572,N,Y,37.7770345,-122.4101688
MLS Listing,,Single Family Residential,1396 Pacific Ave,San Francisco,CA,94123,1975000,3,2.0,SF District 8,1350,1197,1909,21,1463,,Active,,,https://www.redfin.com/CA/San-Francisco/1396-Pacific-Ave-94109/home/196337858,San Francisco MLS,425055160,N,Y,37.7956294,-122.4181835
MLS Listing,,Other,2950-2952 25th St,San Francisco,CA,94110,1609000,4,,SF District 9,3650,1838,1915,21,441,,Active,,,https://www.redfin.com/CA/San-Francisco/2950-25th-St-94110/home/196337689,San Francisco MLS,425056514,N,Y,37.751368,-122.4092051
MLS Listing,,Single Family Residential,459 Flood Ave,San Francisco,CA,94112,1450000,4,4.0,SAN FRANCISCO,1979,3371,1922,21,733,,Active,,,https://www.redfin.com/CA/San-Francisco/459-Flood-Ave-94112/home/1014542,MLSListings,ML82014137,N,Y,37.7297036,-122.4502603
MLS Listing,,Other,1524-1528 Haight St,San Francisco,CA,94117,3198000,12,3.0,SF District 5,7940,3781,1900,21,403,,Active,,,https://www.redfin.com/CA/San-Francisco/15241528-Haight-St-94117/home/169733030,San Francisco MLS,425055213,N,Y,37.770223,-122.447496
MLS Listing,,Condo/Co-op,425 1st St #1601,San Francisco,CA,94105,988000,1,1.0,SF District 9,837,56024,2008,21,1180,1495,Active,August-3-2025 12:00 PM,August-3-2025 02:00 PM,https://www.redfin.com/CA/San-Francisco/425-1st-St-94105/unit-1601/home/17306477,San Francisco MLS,425046041,N,Y,37.7858649,-122.3921951
MLS Listing,,Single Family Residential,79 Karen Ct,San Francisco,CA,94134,1288000,4,3.0,SF District 10,1850,1560,2002,21,696,,Active,,,https://www.redfin.com/CA/San-Francisco/79-Karen-Ct-94134/home/1689831,San Francisco MLS,425044705,N,Y,37.723305,-122.406858
MLS Listing,,Multi-Family (2-4 Unit),509 44th Ave,San Francisco,CA,94121,1488000,4,2.0,SAN FRANCISCO,2600,1875,1948,21,572,,Active,,,https://www.redfin.com/CA/San-Francisco/509-44th-Ave-94121/home/1071361,MLSListings,ML82014097,N,Y,37.778805,-122.505322
MLS Listing,,Single Family Residential,1035 Natoma St,San Francisco,CA,94103,1195000,3,1.5,SF District 9,1370,2000,1906,21,872,,Active,August-3-2025 02:00 PM,August-3-2025 04:00 PM,https://www.redfin.com/CA/San-Francisco/1035-Natoma-St-94103/home/1890078,San Francisco MLS,425056192,N,Y,37.7729901,-122.4165187
MLS Listing,,Single Family Residential,276 Seneca Ave,San Francisco,CA,94112,1580000,5,5.0,SF District 10,2865,2082,1907,21,551,,Active,,,https://www.redfin.com/CA/San-Francisco/276-Seneca-Ave-94112/home/1891198,San Francisco MLS,425055460,N,Y,37.7210248,-122.4439003
MLS Listing,,Single Family Residential,284 Allison St,San Francisco,CA,94112,1198000,3,2.0,SF District 10,1424,2374,1929,21,841,,Active,August-3-2025 02:00 PM,August-3-2025 04:00 PM,https://www.redfin.com/CA/San-Francisco/284-Allison-St-94112/home/796158,San Francisco MLS,425056368,N,Y,37.7113426,-122.4414186
MLS Listing,,Condo/Co-op,766 Harrison St #403,San Francisco,CA,94107,349900,0,1.0,SF District 9,266,6880,2008,21,1315,341,Active,,,https://www.redfin.com/CA/San-Francisco/766-Harrison-St-94107/unit-403/home/39915205,San Francisco MLS,425008639,N,Y,37.7816524,-122.3991845
MLS Listing,,Condo/Co-op,1200 Gough St Unit 3A,San Francisco,CA,94109,949000,2,2.0,SF District 8,1500,44676,1966,21,633,1592,Active,August-2-2025 12:00 PM,August-2-2025 02:00 PM,https://www.redfin.com/CA/San-Francisco/1200-Gough-St-94109/unit-3A/home/1546400,San Francisco MLS,425047894,N,Y,37.7849434,-122.4242824
MLS Listing,,Condo/Co-op,1520 Taylor St #103,San Francisco,CA,94133,1150000,2,2.0,SF District 8,1145,9375,1976,21,1004,924,Active,August-3-2025 02:00 PM,August-3-2025 04:00 PM,https://www.redfin.com/CA/San-Francisco/1520-Taylor-St-94133/unit-103/home/1958448,San Francisco MLS,425055439,N,Y,37.7964466,-122.413234
MLS Listing,,Single Family Residential,3014 Pine St,San Francisco,CA,94115,1100000,2,1.5,SF District 6,1382,2831,1905,21,796,398,Active,,,https://www.redfin.com/CA/San-Francisco/3014-Pine-St-94115/home/1278290,San Francisco MLS,425051982,N,Y,37.786625,-122.445864
MLS Listing,,Single Family Residential,100 Sloat Blvd,San Francisco,CA,94132,1795000,3,3.0,SF District 4,1595,5000,1924,21,1125,,Active,,,https://www.redfin.com/CA/San-Francisco/100-Sloat-Blvd-94132/home/666517,San Francisco MLS,425054812,N,Y,37.7350084,-122.4731237
MLS Listing,,Condo/Co-op,1125 Leavenworth St,San Francisco,CA,94109,1995000,4,3.0,SF District 8,2580,3438,1908,21,773,394,Active,August-3-2025 02:00 PM,August-3-2025 04:00 PM,https://www.redfin.com/CA/San-Francisco/1125-Leavenworth-St-94109/home/550404,San Francisco MLS,425055096,N,Y,37.7916454,-122.4160464
MLS Listing,,Condo/Co-op,338 Spear St Unit 6J,San Francisco,CA,94105,999000,1,1.0,SOUTH BEACH,1021,,2009,21,978,1242,Active,August-2-2025 01:00 PM,August-2-2025 04:00 PM,https://www.redfin.com/CA/San-Francisco/338-Spear-St-94105/unit-6J/home/23424200,"bridgeMLS, Bay East AOR, or Contra Costa AOR",41096304,N,Y,37.7894178,-122.3906249
MLS Listing,,Condo/Co-op,1734 Bay St #103,San Francisco,CA,94123,750000,1,1.0,SF District 7,,7545,1963,21,,601,Active,,,https://www.redfin.com/CA/San-Francisco/1734-Bay-St-94123/unit-103/home/559769,San Francisco MLS,425053738,N,Y,37.8031181,-122.4356038
MLS Listing,,Single Family Residential,946 Capitol Ave,San Francisco,CA,94112,999000,3,2.0,SF District 3,1360,2809,1907,22,735,,Active,,,https://www.redfin.com/CA/San-Francisco/946-Capitol-Ave-94112/home/1863488,San Francisco MLS,425053101,N,Y,37.7190931,-122.4589479
MLS Listing,,Vacant Land,1230-1240 Twin Peaks Blvd,San Francisco,CA,94131,3950000,,,SF District 5,,6730,,22,,,Active,,,https://www.redfin.com/CA/San-Francisco/1230-Twin-Peaks-Blvd-94131/home/110057035,San Francisco MLS,425055400,N,Y,37.746443,-122.450416
MLS Listing,,Condo/Co-op,1400 Mission St #1203,San Francisco,CA,94103,388000,1,1.0,SF District 9,655,24546,,22,592,559,Active,,,https://www.redfin.com/CA/San-Francisco/1400-Mission-St-94103/unit-1203/home/109687113,San Francisco MLS,425056210,N,Y,37.7753691,-122.4164734
MLS Listing,,Single Family Residential,52 Eastwood Dr,San Francisco,CA,94112,2388000,6,6.0,SAN FRANCISCO,2704,3628,1917,22,883,14,Active,August-2-2025 02:00 PM,August-2-2025 04:00 PM,https://www.redfin.com/CA/San-Francisco/52-Eastwood-Dr-94112/home/698124,MLSListings,ML82013500,N,Y,37.726519,-122.457005
MLS Listing,,Multi-Family (5+ Unit),2332-2334 California St,San Francisco,CA,94115,2498000,6,7.0,SF District 7,4694,3380,1900,22,532,,Active,,,https://www.redfin.com/CA/San-Francisco/2332-California-St-94115/home/921734,San Francisco MLS,425051802,N,Y,37.7892823,-122.4328983
MLS Listing,,Condo/Co-op,2922 Pine St,San Francisco,CA,94115,1095000,2,2.0,SF District 6,1070,1730,1908,22,1023,264,Active,,,https://www.redfin.com/CA/San-Francisco/2922-Pine-St-94115/home/28890383,San Francisco MLS,425050405,N,Y,37.7867988,-122.4439941
MLS Listing,,Condo/Co-op,181 Fremont St Unit 65C,San Francisco,CA,94105,2495000,2,2.5,SF District 9,1262,,2018,22,1977,3839,Active,,,https://www.redfin.com/CA/San-Francisco/181-Fremont-St-94105/unit-65C/home/196321858,San Francisco MLS,425034283,N,Y,37.7896113,-122.3954593
MLS Listing,,Condo/Co-op,181 Fremont St Unit 54A,San Francisco,CA,94105,875000,1,1.0,SF District 9,490,,2018,22,1786,1957,Active,,,https://www.redfin.com/CA/San-Francisco/181-Fremont-St-94105/unit-54A/home/192567362,San Francisco MLS,425056004,N,Y,37.7896113,-122.3954593
MLS Listing,,Condo/Co-op,181 Fremont St Unit 62B,San Francisco,CA,94105,4995000,3,3.5,SF District 9,2263,,2018,22,2207,4332,Active,,,https://www.redfin.com/CA/San-Francisco/181-Fremont-St-94105/unit-62B/home/192393785,San Francisco MLS,425056013,N,Y,37.7896113,-122.3954593
MLS Listing,,Multi-Family (5+ Unit),501 Taylor St,San Francisco,CA,94102,16500000,0,,SF District 8,46919,9452,1920,22,352,,Active,,,https://www.redfin.com/CA/San-Francisco/501-Taylor-St-94102/home/551258,San Francisco MLS,425056113,N,Y,37.7871582,-122.4117295
MLS Listing,,Single Family Residential,102 Baker St Unit A,San Francisco,CA,94117,2195000,3,3.5,SF District 5,1900,2422,1900,22,1155,,Active,August-2-2025 02:00 PM,August-2-2025 04:00 PM,https://www.redfin.com/CA/San-Francisco/102-Baker-St-94117/unit-A/home/196308457,San Francisco MLS,425056090,N,Y,37.7720278,-122.4402877
MLS Listing,,Condo/Co-op,5800 3rd St #1401,San Francisco,CA,94124,595000,1,1.0,SF District 10,816,128582,2010,22,729,537,Active,August-3-2025 02:00 PM,August-3-2025 04:00 PM,https://www.redfin.com/CA/San-Francisco/5800-3rd-St-94124/unit-1401/home/40625853,San Francisco MLS,425056054,N,Y,37.7254264,-122.3945479
MLS Listing,,Single Family Residential,102 Baker St Unit B,San Francisco,CA,94117,1495000,2,2.5,SF District 5,1249,2422,1900,22,1197,,Active,August-2-2025 02:00 PM,August-2-2025 04:00 PM,https://www.redfin.com/CA/San-Francisco/102-Baker-St-94117/unit-B/home/196318982,San Francisco MLS,425056007,N,Y,37.7720278,-122.4402877
MLS Listing,,Vacant Land,1810 8th Ave,San Francisco,CA,94122,850000,,,SAN FRANCISCO,,1500,,22,,,Active,,,https://www.redfin.com/CA/San-Francisco/1810-8th-Ave-94122/home/178360509,MLSListings,ML82013920,N,Y,37.7544823,-122.4643935
MLS Listing,,Vacant Land,1808 8th Aveue,San Francisco,CA,94122,850000,,,SAN FRANCISCO,,1500,,22,,,Active,,,https://www.redfin.com/CA/San-Francisco/1808-8th-Ave-94122/home/1072082,MLSListings,ML82013919,N,Y,37.7544573,-122.4643613
MLS Listing,,Condo/Co-op,110 Channel St #306,San Francisco,CA,94158,1498000,2,2.0,SF District 9,,49773,2017,22,,968,Active,,,https://www.redfin.com/CA/San-Francisco/110-Channel-St-94158/unit-306/home/194780116,San Francisco MLS,425054640,N,Y,37.7746482,-122.391105
MLS Listing,,Multi-Family (2-4 Unit),414 Bryant St,San Francisco,CA,94107,3000000,,,SAN FRANCISCO,4500,2000,1907,22,667,,Active,,,https://www.redfin.com/CA/San-Francisco/414-Bryant-St-94107/home/722987,MLSListings,ML82013908,N,Y,37.782903,-122.394241
MLS Listing,,Single Family Residential,53 Elsie St,San Francisco,CA,94110,1600000,2,2.0,BERNAL HEIGHTS,1385,1750,1907,22,1155,,Active,August-2-2025 02:00 PM,August-2-2025 04:00 PM,https://www.redfin.com/CA/San-Francisco/53-Elsie-St-94110/home/1471521,"bridgeMLS, Bay East AOR, or Contra Costa AOR",41104074,N,Y,37.7441863,-122.4166299
MLS Listing,,Single Family Residential,102 Baker St,San Francisco,CA,94117,1750000,2,2.5,SF District 5,1394,2422,1900,22,1255,,Active,August-2-2025 02:00 PM,August-2-2025 04:00 PM,https://www.redfin.com/CA/San-Francisco/102-Baker-St-94117/home/2007549,San Francisco MLS,425055639,N,Y,37.7720228,-122.4402887
MLS Listing,,Condo/Co-op,401 Harrison St Unit 23C,San Francisco,CA,94105,1895000,2,2.0,SF District 9,1334,56023,2014,22,1421,1887,Active,,,https://www.redfin.com/CA/San-Francisco/401-Harrison-St-94105/unit-23C/home/144064227,San Francisco MLS,425052271,N,Y,37.7863747,-122.3919931
MLS Listing,,Condo/Co-op,4096 17th St #308,San Francisco,CA,94114,899000,2,1.0,SAN FRANCISCO,898,,1965,22,1001,840,Active,August-2-2025 02:00 PM,August-2-2025 04:00 PM,https://www.redfin.com/CA/San-Francisco/4096-17th-St-94114/unit-308/home/672688,MLSListings,ML82013878,N,Y,37.7628651,-122.4372756
MLS Listing,,Condo/Co-op,1 Bristol Ct #208,San Francisco,CA,94130,1498000,2,2.5,SF District 9,1329,,,22,1127,1777,Active,August-1-2025 11:00 AM,August-1-2025 02:00 PM,https://www.redfin.com/CA/Unknown/1-Bristol-Ct-Unknown/unit-208/home/187610447,San Francisco MLS,425055676,N,Y,37.8115646,-122.3651016
MLS Listing,,Condo/Co-op,1 Bristol Ct #505,San Francisco,CA,94130,672000,1,1.0,SF District 9,930,,,22,723,1698,Active,August-1-2025 11:00 AM,August-1-2025 02:00 PM,https://www.redfin.com/CA/Unknown/1-Bristol-Ct-Unknown/unit-505/home/187610493,San Francisco MLS,425055694,N,Y,37.8115646,-122.3651016
MLS Listing,,Condo/Co-op,15 Lucerne St Unit B,San Francisco,CA,94103,1239000,2,2.5,SF District 9,1875,12501,1997,22,661,1115,Active,,,https://www.redfin.com/CA/San-Francisco/15-Lucerne-St-94103/unit-B/home/12396240,San Francisco MLS,425053258,N,Y,37.7737844,-122.401732
MLS Listing,,Condo/Co-op,1 Bristol Ct #116,San Francisco,CA,94130,998000,2,2.5,SF District 9,1409,,,22,708,1793,Active,August-1-2025 11:00 AM,August-1-2025 02:00 PM,https://www.redfin.com/CA/San-Francisco/1-Bristol-Ct-94130/unit-116/home/194779885,San Francisco MLS,425055697,N,Y,37.811517,-122.365082
MLS Listing,,Condo/Co-op,1 Bristol Ct #217,San Francisco,CA,94130,895000,1,1.0,SF District 9,1116,,,22,802,1734,Active,August-1-2025 11:00 AM,August-1-2025 02:00 PM,https://www.redfin.com/CA/Unknown/1-Bristol-Ct-Unknown/unit-217/home/187610449,San Francisco MLS,425055691,N,Y,37.8115646,-122.3651016
MLS Listing,,Condo/Co-op,1160 Mission St #2212,San Francisco,CA,94103,639000,1,1.0,SF District 9,654,43557,2008,22,977,989,Active,,,https://www.redfin.com/CA/San-Francisco/1160-Mission-St-94103/unit-2212/home/17305050,San Francisco MLS,425055276,N,Y,37.7783752,-122.4122214
MLS Listing,,Condo/Co-op,999 Green St #2001,San Francisco,CA,94133,2175000,2,2.0,SF District 8,1300,14265,1964,23,1673,2774,Active,August-3-2025 02:00 PM,August-3-2025 04:00 PM,https://www.redfin.com/CA/San-Francisco/999-Green-St-94133/unit-2001/home/542575,San Francisco MLS,425043425,N,Y,37.7984796,-122.4152489
MLS Listing,,Condo/Co-op,501 Beale St Unit 10B,San Francisco,CA,94105,1248000,2,2.0,San Francisco,1019,,2006,23,1225,1408,Active,,,https://www.redfin.com/CA/San-Francisco/501-Beale-St-94105/unit-10B/home/11743127,MLSListings,ML82013709,N,Y,37.7861586,-122.3893786
MLS Listing,,Condo/Co-op,1221 Harrison St #1,San Francisco,CA,94103,750000,1,2.0,SF District 9,1162,17133,2004,23,645,699,Active,August-3-2025 12:00 PM,August-3-2025 01:30 PM,https://www.redfin.com/CA/San-Francisco/1221-Harrison-St-94103/unit-1/home/1038430,San Francisco MLS,425054267,N,Y,37.7732324,-122.4089789
MLS Listing,,Condo/Co-op,988 Harrison St Unit CJ3,San Francisco,CA,94107,498000,1,1.0,SF District 9,,,,23,,552,Active,August-2-2025 01:00 PM,August-2-2025 04:00 PM,https://www.redfin.com/CA/San-Francisco/988-Harrison-St-94107/unit-CJ3/home/196284705,San Francisco MLS,425054477,N,Y,37.7775861,-122.4041186
MLS Listing,,Condo/Co-op,988 Harrison St Unit HM6,San Francisco,CA,94107,899000,2,2.0,SF District 9,,,,23,,592,Active,August-2-2025 01:00 PM,August-2-2025 04:00 PM,https://www.redfin.com/CA/San-Francisco/988-Harrison-St-94107/unit-HM6/home/196284703,San Francisco MLS,425054481,N,Y,37.7775861,-122.4041186
MLS Listing,,Townhouse,104 Diamond Cove Ter,San Francisco,CA,94134,527515,4,4.0,SF District 10,1655,7034,2011,23,319,531,Active,,,https://www.redfin.com/CA/San-Francisco/104-Diamond-Cove-Ter-94134/home/40629134,San Francisco MLS,425051102,N,Y,37.7129452,-122.3949807
MLS Listing,,Condo/Co-op,988 Harrison St Unit WA5,San Francisco,CA,94107,589000,1,1.0,SF District 9,,,,23,,561,Active,August-2-2025 01:00 PM,August-2-2025 04:00 PM,https://www.redfin.com/CA/San-Francisco/988-Harrison-St-94107/unit-WA5/home/196284702,San Francisco MLS,425054480,N,Y,37.7775861,-122.4041186
MLS Listing,,Condo/Co-op,988 Harrison St Unit WA2,San Francisco,CA,94107,495000,1,1.0,SF District 9,,,,23,,561,Active,August-2-2025 01:00 PM,August-2-2025 04:00 PM,https://www.redfin.com/CA/San-Francisco/988-Harrison-St-94107/unit-WA2/home/196284701,San Francisco MLS,425054464,N,Y,37.7775861,-122.4041186
MLS Listing,,Single Family Residential,1438 Oakdale Ave,San Francisco,CA,94124,795000,3,2.0,SF District 10,1338,2495,1963,23,594,,Active,,,https://www.redfin.com/CA/San-Francisco/1438-Oakdale-Ave-94124/home/746557,San Francisco MLS,425051023,N,Y,37.7330926,-122.3872346
MLS Listing,,Condo/Co-op,1920 Ocean Ave Unit 1E,San Francisco,CA,94127,649000,2,1.0,SF District 4,813,10264,1987,23,798,652,Active,,,https://www.redfin.com/CA/San-Francisco/1920-Ocean-Ave-94127/unit-1E/home/1542277,San Francisco MLS,425054912,N,Y,37.725802,-122.4630446
MLS Listing,,Condo/Co-op,3555 17th St,San Francisco,CA,94110,899000,1,1.0,DOLORES,1107,,1915,24,812,293,Active,,,https://www.redfin.com/CA/San-Francisco/3555-17th-St-94110/home/144063414,"bridgeMLS, Bay East AOR, or Contra Costa AOR",41103919,N,Y,37.7629716,-122.4251024
MLS Listing,,Single Family Residential,1615 La Salle Ave,San Francisco,CA,94124,799000,3,2.0,SAN FRANCISCO,1250,2495,1940,24,639,,Active,August-1-2025 04:30 PM,August-1-2025 06:00 PM,https://www.redfin.com/CA/San-Francisco/1615-La-Salle-Ave-94124/home/1282195,MLSListings,ML82013678,N,Y,37.7365255,-122.3891587
MLS Listing,,Other,449 9th St,San Francisco,CA,94103,2588000,10,,SF District 9,4765,2500,1914,24,543,,Active,,,https://www.redfin.com/CA/San-Francisco/449-9th-St-94103/home/194789712,San Francisco MLS,425055414,N,Y,37.772117,-122.409148
MLS Listing,,Condo/Co-op,2100 Green St #706,San Francisco,CA,94123,3995000,2,2.0,SF District 7,1866,,1927,24,2141,2300,Active,,,https://www.redfin.com/CA/San-Francisco/2100-Green-St-94123/unit-706/home/12400513,San Francisco MLS,425055131,N,Y,37.7965699,-122.4339534
MLS Listing,,Single Family Residential,470-472 Fair Oaks St,San Francisco,CA,94110,2195000,5,3.5,SF District 5,2925,3125,1906,24,750,,Active,,,https://www.redfin.com/CA/San-Francisco/472-Fair-Oaks-St-94110/home/185385811,San Francisco MLS,425054926,N,Y,37.7491848,-122.4240072
MLS Listing,,Condo/Co-op,630 Mason St #403,San Francisco,CA,94108,599000,1,1.0,SF District 8,750,4469,1927,24,799,602,Active,,,https://www.redfin.com/CA/San-Francisco/630-Mason-St-94108/unit-403/home/12392945,San Francisco MLS,425053290,N,Y,37.7894862,-122.4102175
MLS Listing,,Condo/Co-op,1875 Mission St #304,San Francisco,CA,94103,699000,1,1.0,SF District 9,751,11181,2014,24,931,737,Active,,,https://www.redfin.com/CA/San-Francisco/1875-Mission-St-94103/unit-304/home/65904515,San Francisco MLS,425043973,N,Y,37.7671306,-122.4194657
MLS Listing,,Condo/Co-op,1188 Valencia St #403,San Francisco,CA,94110,699000,1,1.0,SF District 9,628,14318,2018,24,1113,580,Active,,,https://www.redfin.com/CA/San-Francisco/1188-Valencia-St-94110/unit-403/home/192773390,San Francisco MLS,425053771,N,Y,37.753925,-122.4210146
MLS Listing,,Single Family Residential,1908 Buchanan St,San Francisco,CA,94115,1995000,3,1.5,SF District 6,,2000,1904,24,,,Active,,,https://www.redfin.com/CA/San-Francisco/1908-Buchanan-St-94115/home/1731289,San Francisco MLS,425053798,N,Y,37.7878364,-122.4300626
MLS Listing,,Condo/Co-op,1340 Clay St #302,San Francisco,CA,94109,790000,1,1.0,SF District 8,975,,1991,24,810,1935,Active,August-2-2025 12:00 PM,August-2-2025 02:00 PM,https://www.redfin.com/CA/San-Francisco/1340-Clay-St-94109/unit-302/home/1304373,San Francisco MLS,425050399,N,Y,37.79332,-122.4153392
MLS Listing,,Condo/Co-op,8 Fountain St,San Francisco,CA,94114,895000,2,1.0,SF District 5,750,2151,1926,24,1193,250,Active,,,https://www.redfin.com/CA/San-Francisco/8-Fountain-St-94114/home/40457268,San Francisco MLS,425053825,N,Y,37.7505875,-122.4418249
MLS Listing,,Single Family Residential,888 Portola Dr,San Francisco,CA,94127,1499999,3,2.0,SF District 4,1738,2021,1949,25,863,,Active,,,https://www.redfin.com/CA/San-Francisco/888-Portola-Dr-94127/home/1271809,BAREIS,425055127,N,Y,37.74349,-122.4552384
MLS Listing,,Condo/Co-op,1000 Franklin St #305,San Francisco,CA,94109,725000,2,2.0,SF District 8,1054,13200,1980,25,688,551,Active,,,https://www.redfin.com/CA/San-Francisco/1000-Franklin-St-94109/unit-305/home/1974375,San Francisco MLS,425005439,N,Y,37.783912,-122.422399
MLS Listing,,Condo/Co-op,1970 Sutter St #107,San Francisco,CA,94115,1195000,1,2.0,SF District 6,1041,12031,2001,25,1148,971,Active,August-3-2025 02:00 PM,August-3-2025 04:00 PM,https://www.redfin.com/CA/San-Francisco/1970-Sutter-St-94115/unit-107/home/2012415,San Francisco MLS,425029534,N,Y,37.7864159,-122.4326567
MLS Listing,,Single Family Residential,331 Vicente St,San Francisco,CA,94127,2850000,3,3.0,SF District 4,2368,2495,1929,25,1204,,Active,August-3-2025 02:00 PM,August-3-2025 04:00 PM,https://www.redfin.com/CA/San-Francisco/331-Vicente-St-94127/home/1334271,San Francisco MLS,425043941,N,Y,37.7393288,-122.470596
MLS Listing,,Condo/Co-op,632 Diamond St,San Francisco,CA,94114,1195000,2,1.0,SF District 5,1000,3530,1908,27,1195,350,Active,August-2-2025 02:00 PM,August-2-2025 04:00 PM,https://www.redfin.com/CA/San-Francisco/632-Diamond-St-94114/home/40456984,San Francisco MLS,425054876,N,Y,37.7523116,-122.4366537
MLS Listing,,Single Family Residential,2277 33rd Ave,San Francisco,CA,94116,2499000,4,4.0,SF District 2,2859,4530,1948,27,874,,Active,,,https://www.redfin.com/CA/San-Francisco/2277-33rd-Ave-94116/home/1932633,San Francisco MLS,424000525,N,Y,37.7447,-122.4911349
